address,district,area,bedrooms,garage,type,rent,total,latitude,longitude,geometry,ID,NM_MESO,CD_GEOCODU,distance_to_schools,distance_to_hospitals,distance_to_parks
Rua Herval,Belenzinho,21,1,0,Studio e kitnet,2400,2939,-23.5414707,-46.5910856,POINT (-46.5910856 -23.5414707),20,METROPOLITANA DE SÃO PAULO,35,132.40597716733186,490.2435750872082,1120.8387105003737
Avenida São Miguel,Vila Marieta,15,1,1,Studio e kitnet,1030,1345,-23.5148713,-46.5200703,POINT (-46.5200703 -23.5148713),20,METROPOLITANA DE SÃO PAULO,35,572.8836576495721,706.6640338572441,1901.8835014845054
Rua Oscar Freire,Pinheiros,18,1,0,Apartamento,4000,4661,-23.5577926,-46.6738109,POINT (-46.6738109 -23.5577926),20,METROPOLITANA DE SÃO PAULO,35,118.43530313007429,165.8761499161964,297.9851638241592
Rua Júlio Sayago,Vila Ré,56,2,2,Casa em condomínio,1750,1954,-23.5317574,-46.4904625,POINT (-46.4904625 -23.5317574),20,METROPOLITANA DE SÃO PAULO,35,46.9555461898416,673.8574816594354,1728.1841887070336
Rua Barata Ribeiro,Bela Vista,19,1,0,Studio e kitnet,4000,4654,-23.5558529,-46.6505512,POINT (-46.6505512 -23.5558529),20,METROPOLITANA DE SÃO PAULO,35,134.90821982307858,277.6031317122654,265.23979625211376
Rua Domingos Paiva,Brás,50,2,1,Apartamento,3800,4587,-23.5486945,-46.6144899,POINT (-46.6144899 -23.5486945),20,METROPOLITANA DE SÃO PAULO,35,137.01288424751877,1072.951397745931,641.2592645560193
Avenida Cásper Líbero,Centro,26,1,0,Studio e kitnet,1727,2244,-23.5408823,-46.636466,POINT (-46.636466 -23.5408823),20,METROPOLITANA DE SÃO PAULO,35,289.4507026608207,695.240903294204,388.0297741098828
Rua José Peres Campelo,Piqueri,32,2,0,Apartamento,1200,1592,-23.5064535,-46.7136473,POINT (-46.7136473 -23.5064535),20,METROPOLITANA DE SÃO PAULO,35,270.1280153645689,1071.4980514931103,484.6427990442819
Rua Guaperuvu,Vila Aricanduva,36,1,0,Apartamento,1200,1501,-23.5360306,-46.5387385,POINT (-46.5387385 -23.5360306),20,METROPOLITANA DE SÃO PAULO,35,181.0384300182894,264.21495426744104,1122.2666305685432
Rua dos Carmelitas,Sé,63,2,0,Apartamento,1500,2020,-23.5519164,-46.6292206,POINT (-46.6292206 -23.5519164),20,METROPOLITANA DE SÃO PAULO,35,125.71960868950055,136.29375015363937,402.06314156002475
Rua Tabatinguera,Sé,34,1,0,Apartamento,1000,1406,-23.5521762,-46.6274643,POINT (-46.6274643 -23.5521762),20,METROPOLITANA DE SÃO PAULO,35,264.4893474060154,146.7659432447511,548.3891533637426
Rua Henrique Sertório,Tatuapé,32,1,0,Studio e kitnet,2100,2598,-23.5394195,-46.5782329,POINT (-46.5782329 -23.5394195),20,METROPOLITANA DE SÃO PAULO,35,40.46146954891061,674.2993308012723,214.71685500014823
Rua Herison,Lauzane Paulista,50,3,0,Casa em condomínio,1437,1517,-23.4738135,-46.6437365,POINT (-46.6437365 -23.4738135),20,METROPOLITANA DE SÃO PAULO,35,136.87534079949654,254.47828448309767,696.9172628010232
Rua Scuvero,Cambuci,75,2,0,Casa,2266,2422,-23.5634187,-46.6266294,POINT (-46.6266294 -23.5634187),20,METROPOLITANA DE SÃO PAULO,35,85.44992388120016,603.5254915525844,878.169485475551
Rua Doutor Tomaz de Lima,Liberdade,64,2,0,Apartamento,1530,2049,-23.5546456,-46.6319897,POINT (-46.6319897 -23.5546456),20,METROPOLITANA DE SÃO PAULO,35,212.17678429691082,457.89757714091024,90.44599399073708
Rua Conselheiro Furtado,Liberdade,28,1,0,Studio e kitnet,2300,2750,-23.559334,-46.6328694,POINT (-46.6328694 -23.559334),20,METROPOLITANA DE SÃO PAULO,35,236.92353737692795,83.74338561158838,235.74257444210383
Rua Guaraiuva,Cidade Monções,30,1,1,Casa,2394,2538,-23.6085838,-46.6868596,POINT (-46.6868596 -23.6085838),20,METROPOLITANA DE SÃO PAULO,35,80.87681618045013,936.2204797171169,1445.5263006890787
Rua Torres da Barra,Água Branca,32,1,0,Apartamento,1764,2177,-23.5141046,-46.6868077,POINT (-46.6868077 -23.5141046),20,METROPOLITANA DE SÃO PAULO,35,265.2711060414799,1313.2912379957966,800.384344862143
Rua Guarapuava,Mooca,36,1,0,Apartamento,1850,2281,-23.5476999,-46.6051591,POINT (-46.6051591 -23.5476999),20,METROPOLITANA DE SÃO PAULO,35,361.09588447131307,154.6844585213029,860.8385835911276
Rua dos Estudantes,Sé,30,1,0,Apartamento,1700,2066,-23.5555266,-46.6346329,POINT (-46.6346329 -23.5555266),20,METROPOLITANA DE SÃO PAULO,35,333.3445706420578,254.83681130071034,280.3931966098791
Rua Fernando de Noronha,Chácara Inglesa,62,2,1,Apartamento,2700,3754,-23.6082459,-46.635422,POINT (-46.635422 -23.6082459),20,METROPOLITANA DE SÃO PAULO,35,119.17256657992998,1124.268420904763,1032.5220545762993
Avenida Condessa Elizabeth de Robiano,Vila Moreira,40,2,1,Apartamento,1900,2233,-23.529923,-46.58819,POINT (-46.58819 -23.529923),20,METROPOLITANA DE SÃO PAULO,35,35.71647153250163,682.2774451203552,705.304550447345
Rua Nadir,Gopoúva,54,2,1,Apartamento,2000,2536,-23.4686737,-46.5389806,POINT (-46.5389806 -23.4686737),20,METROPOLITANA DE SÃO PAULO,35,2568.3276752412066,3208.9903875840087,3536.5883807368555
Avenida dos Ourives,Jardim São Savério,63,3,1,Apartamento,1460,2018,-23.6539478,-46.6124891,POINT (-46.6124891 -23.6539478),20,METROPOLITANA DE SÃO PAULO,35,207.14528223121334,416.449665852295,1495.6784291892152
Rua Elza Guimarães,Vila Amalia (zona Norte),59,3,1,Apartamento,1500,1958,-23.4670391,-46.6520604,POINT (-46.6520604 -23.4670391),20,METROPOLITANA DE SÃO PAULO,35,42.222557725431834,413.6823557273566,909.7828817180883
Avenida Cásper Líbero,Centro,25,1,0,Studio e kitnet,2100,2571,-23.5408823,-46.636466,POINT (-46.636466 -23.5408823),20,METROPOLITANA DE SÃO PAULO,35,289.4507026608207,695.240903294204,388.0297741098828
Rua Dom Macário,Saúde,54,2,0,Apartamento,1100,1462,-23.6141848,-46.6094387,POINT (-46.6094387 -23.6141848),20,METROPOLITANA DE SÃO PAULO,35,76.82924903827548,458.2684913748084,225.88799092668162
Rua Marcelo Homem de Melo,Quarta Parada,62,2,0,Casa,2500,2594,-23.5484924,-46.5879422,POINT (-46.5879422 -23.5484924),20,METROPOLITANA DE SÃO PAULO,35,230.82338393969286,449.13801047569353,967.7934840772753
Largo do Arouche,Santa Efigênia,80,1,0,Apartamento,2300,2969,-23.54140955,-46.64689716717812,POINT (-46.64689716717812 -23.54140955),20,METROPOLITANA DE SÃO PAULO,35,405.2882048573451,248.05218433775133,254.05567793642498
Rua Ricardo Avenarius,Paraíso do Morumbi,24,1,0,Apartamento,900,1245,-23.6183801,-46.7288057,POINT (-46.7288057 -23.6183801),20,METROPOLITANA DE SÃO PAULO,35,36.49922284286478,235.84861914885732,1592.0460074414957
Rua Nova dos Portugueses,Chora Menino,100,3,2,Casa,2450,2771,-23.4924779,-46.6415669,POINT (-46.6415669 -23.4924779),20,METROPOLITANA DE SÃO PAULO,35,271.83852450349207,453.0826998858649,1100.3995899558201
Rua Itamonte,Vila Medeiros,48,2,1,Apartamento,1600,1955,-23.490097,-46.5795333,POINT (-46.5795333 -23.490097),20,METROPOLITANA DE SÃO PAULO,35,174.67257568729914,533.9091037744324,2641.7237646538
Avenida Antônio Buono,Vila Guarani(zona Leste),35,1,0,Studio e kitnet,1110,1153,-23.5811498,-46.5341672,POINT (-46.5341672 -23.5811498),20,METROPOLITANA DE SÃO PAULO,35,194.42914284469182,624.4930769052601,874.6896953308973
Avenida Rangel Pestana,Brás,32,1,0,Apartamento,1900,2249,-23.5474342,-46.6251643,POINT (-46.6251643 -23.5474342),20,METROPOLITANA DE SÃO PAULO,35,202.28336843625098,508.75282775809984,569.6826751718395
Rua Cônego Vicente Miguel Marino,Barra Funda,33,1,0,Apartamento,2200,2624,-23.5266013,-46.6540593,POINT (-46.6540593 -23.5266013),20,METROPOLITANA DE SÃO PAULO,35,205.5162752654065,303.2688101203377,466.22512286226333
Rua Salvador Gaeta,Vila Augusta,68,2,2,Casa,2426,2574,-23.4797721,-46.5467188,POINT (-46.5467188 -23.4797721),20,METROPOLITANA DE SÃO PAULO,35,1536.086888626024,2299.3385852800193,2879.700702849583
Rua Casa do Ator,Vila Olímpia,69,2,1,Apartamento,2910,3970,-23.5989412,-46.678818,POINT (-46.678818 -23.5989412),20,METROPOLITANA DE SÃO PAULO,35,244.7341549764348,768.1032522974107,895.3871391995945
Av.nove de Julho,Bela Vista,25,1,0,Apartamento,2500,3008,-23.5606299,-46.6551101,POINT (-46.6551101 -23.5606299),20,METROPOLITANA DE SÃO PAULO,35,451.72575867574346,134.36912892510114,110.90366248546162
Rua Joaquim Afonso de Souza,Vila Celeste,110,2,0,Casa,1300,1355,-23.4828324,-46.6624231,POINT (-46.6624231 -23.4828324),20,METROPOLITANA DE SÃO PAULO,35,267.0010089221366,580.879796400816,1087.9455939484787
Rua Glória do Goitá 335 Apt 112,Jardim Independência,29,1,0,Studio e kitnet,1180,1411,-23.5846819,-46.558569,POINT (-46.558569 -23.5846819),20,METROPOLITANA DE SÃO PAULO,35,209.75922214624282,470.87684232176065,1567.1632008834863
Rua Martim Burchard,Brás,44,2,0,Apartamento,2250,2712,-23.5461441,-46.6178889,POINT (-46.6178889 -23.5461441),20,METROPOLITANA DE SÃO PAULO,35,142.67342961288526,957.2131786256822,216.58558735909605
Rua Tuiuti,Tatuapé,61,2,1,Apartamento,1900,2882,-23.5451183,-46.5744197,POINT (-46.5744197 -23.5451183),20,METROPOLITANA DE SÃO PAULO,35,136.29051580587338,197.9745830827262,434.990263409727
Rua São Lourenço,Vila Vivaldi,64,2,1,Casa,2500,2715,-23.6594912,-46.5601745,POINT (-46.5601745 -23.6594912),20,METROPOLITANA DE SÃO PAULO,35,3472.146061044698,3727.7674854779593,4907.4667851831
Rua João Mafra,Vila Brasílio Machado,56,2,2,Apartamento,1900,2700,-23.6136949,-46.6121277,POINT (-46.6121277 -23.6136949),20,METROPOLITANA DE SÃO PAULO,35,72.58644727805738,412.7150333436817,438.33627068802406
Rua Sebastião Mariano,Vila Carlos de Campos,60,2,1,Casa,1600,1668,-23.5299018,-46.5372599,POINT (-46.5372599 -23.5299018),20,METROPOLITANA DE SÃO PAULO,35,132.94012480698638,549.031304588799,625.8988737331669
Avenida Vila Ema,Vila Prudente,56,2,1,Apartamento,1890,2222,-23.5814401,-46.5633364,POINT (-46.5633364 -23.5814401),20,METROPOLITANA DE SÃO PAULO,35,303.7512897260168,650.5191239559482,2063.687850218685
Rua Almaden,Vila Andrade,62,2,1,Apartamento,3300,4354,-23.636283,-46.7352712,POINT (-46.7352712 -23.636283),20,METROPOLITANA DE SÃO PAULO,35,109.64794017979894,776.1876578696681,542.5111910337552
Avenida Rio Branco,Campos Elíseos,35,1,0,Apartamento,1300,1580,-23.5295467,-46.647633,POINT (-46.647633 -23.5295467),20,METROPOLITANA DE SÃO PAULO,35,117.48392824797969,556.7045482117021,426.45950279377905
Rua Tanque Velho,Vila Nivi,45,1,0,Casa,500,551,-23.4804217,-46.5926675,POINT (-46.5926675 -23.4804217),20,METROPOLITANA DE SÃO PAULO,35,216.7313276288607,546.9138599167579,1067.0031617015113
Rua Itiúba,Vila Celeste,47,2,0,Casa,1589,1799,-23.5741098,-46.5696283,POINT (-46.5696283 -23.5741098),20,METROPOLITANA DE SÃO PAULO,35,237.52224734135947,718.7476362759379,1667.6680914224607
Rua Hanna Abduch,Vila Palmeiras,80,2,0,Casa,2150,2232,-23.4983425,-46.6879917,POINT (-46.6879917 -23.4983425),20,METROPOLITANA DE SÃO PAULO,35,69.74338305344925,473.0116908425049,1244.291934312321
Avenida Guarulhos,Ponte Grande,45,2,1,Apartamento,1984,2416,-23.5037826,-46.5520524,POINT (-46.5520524 -23.5037826),20,METROPOLITANA DE SÃO PAULO,35,1029.8396563073277,806.0826156480623,1425.233689730826
Rua das Violetas,Vila Marina,52,2,1,Apartamento,1800,1879,-23.6780367,-46.5175348,POINT (-46.5175348 -23.6780367),20,METROPOLITANA DE SÃO PAULO,35,6259.593371659123,6343.18538432761,6462.711332606841
Avenida Sapopemba,Jardim Utinga,45,2,1,Apartamento,1300,1575,-23.6153367,-46.5216801,POINT (-46.5216801 -23.6153367),20,METROPOLITANA DE SÃO PAULO,35,485.10312938214656,290.1644157487553,1600.2676476517936
Avenida São João,República,31,1,0,Apartamento,1300,1350,-23.5397579,-46.6448726,POINT (-46.6448726 -23.5397579),20,METROPOLITANA DE SÃO PAULO,35,392.56731357321223,372.8679396180882,120.93353655257081
Rua Elísio de Carvalho,Vila São Luís(zona Oeste),12,1,0,Apartamento,1122,1208,-23.5716337,-46.7396013,POINT (-46.7396013 -23.5716337),20,METROPOLITANA DE SÃO PAULO,35,85.77169985106707,746.7235601566174,406.6070188147446
Rua Arruda Ferreira,Vila Guilherme,20,1,0,Apartamento,1100,1230,-23.5129224,-46.6084788,POINT (-46.6084788 -23.5129224),20,METROPOLITANA DE SÃO PAULO,35,89.21024070916624,473.63993844452136,976.7045362060541
Rua Aurora,Santa Ifigênia,31,1,0,Studio e kitnet,1075,1393,-23.5379264,-46.6370485,POINT (-46.6370485 -23.5379264),20,METROPOLITANA DE SÃO PAULO,35,38.40128902921445,595.5143173902698,356.74694516732126
Rua Torquato Tasso,Vila Prudente,60,2,0,Casa,1700,1773,-23.5841611,-46.5758843,POINT (-46.5758843 -23.5841611),20,METROPOLITANA DE SÃO PAULO,35,214.53845141289912,537.1630056067216,817.7785052566605
Avenida Júlio Prestes,Vila Galvão,65,2,1,Apartamento,1500,2110,-23.4604137,-46.5589656,POINT (-46.5589656 -23.4604137),20,METROPOLITANA DE SÃO PAULO,35,1068.7203829332245,1708.5617348551125,2252.8696866764776
Rua Arnaldo Cintra,Vila Moreira,50,2,1,Apartamento,2500,2950,-23.5277539,-46.5611838,POINT (-46.5611838 -23.5277539),20,METROPOLITANA DE SÃO PAULO,35,111.30390615859375,627.3189765987847,676.7075553849605
Rua Maranjaí,Vila Monumento,32,1,0,Casa,750,782,-23.5798817,-46.6154177,POINT (-46.6154177 -23.5798817),20,METROPOLITANA DE SÃO PAULO,35,173.93134093879354,494.0036515265483,526.419399080033
Rua Oscar Cintra Gordinho,Liberdade,25,1,0,Studio e kitnet,850,1102,-23.552991,-46.6275366,POINT (-46.6275366 -23.552991),20,METROPOLITANA DE SÃO PAULO,35,189.05903747982418,225.71871375003937,515.4454441437347
Rua Manuel Leiroz,Vila Penteado,31,1,0,Apartamento,1500,1928,-23.5137743,-46.5203076,POINT (-46.5203076 -23.5137743),20,METROPOLITANA DE SÃO PAULO,35,498.66834085027375,745.4284872860823,1813.9508386857315
Rua Itapeti,Vila Alpina,42,1,1,Apartamento,1600,2066,-23.651843,-46.5436217,POINT (-46.5436217 -23.651843),20,METROPOLITANA DE SÃO PAULO,35,4346.454633899545,4792.297409484141,5377.799796542474
Rua Helena Zerrener,Liberdade,23,1,0,Studio e kitnet,753,1162,-23.5534568,-46.6286629,POINT (-46.6286629 -23.5534568),20,METROPOLITANA DE SÃO PAULO,35,83.79967635521479,269.36487097505454,393.1104950636203
Rua Antonieta,Picanço,60,2,1,Casa,1700,1857,-23.4439345,-46.5445973,POINT (-46.5445973 -23.4439345),20,METROPOLITANA DE SÃO PAULO,35,2542.1698157690184,2979.78796763086,3487.10965087057
Rua Natividade Saldanha,São Lucas,22,0,0,Studio e kitnet,900,1126,-23.59294,-46.5565614,POINT (-46.5565614 -23.59294),20,METROPOLITANA DE SÃO PAULO,35,145.25673898360867,610.2135667727671,910.9723427000716
Rua Virginópolis,Sacomã,80,2,1,Casa,2426,2529,-23.6151641,-46.5995056,POINT (-46.5995056 -23.6151641),20,METROPOLITANA DE SÃO PAULO,35,57.119982984601315,249.40882129799851,947.3686358081953
Avenida Joaquina Ramalho,Vila Guilherme,34,1,0,Studio e kitnet,1250,1416,-23.5125174,-46.6066366,POINT (-46.6066366 -23.5125174),20,METROPOLITANA DE SÃO PAULO,35,242.21799586262136,424.5078479847621,830.4119651735044
Rua Coronel Mursa,Brás,19,1,0,Studio e kitnet,1700,2016,-23.548639,-46.6163579,POINT (-46.6163579 -23.548639),20,METROPOLITANA DE SÃO PAULO,35,58.53616183688435,930.3737486630262,531.7644856774787
Rua da Glória,Liberdade,28,1,0,Studio e kitnet,2000,2327,-23.5564179,-46.6341737,POINT (-46.6341737 -23.5564179),20,METROPOLITANA DE SÃO PAULO,35,286.06289577622806,170.37914105768184,322.6596250987097
Rua Doutor Raul da Rocha Medeiros,Tatuapé,52,2,1,Apartamento,3800,4672,-23.5347406,-46.5628588,POINT (-46.5628588 -23.5347406),20,METROPOLITANA DE SÃO PAULO,35,27.69006659931957,388.076188700078,241.1160051302989
Rua Alencar Araripe,Sacomã,50,2,1,Apartamento,1712,2486,-23.6136667,-46.5971237,POINT (-46.5971237 -23.6136667),20,METROPOLITANA DE SÃO PAULO,35,89.21024293284195,332.5098493978513,1023.9307099737196
Rua Cônego Vicente Miguel Marino,Barra Funda,38,1,1,Apartamento,2400,2953,-23.5266013,-46.6540593,POINT (-46.6540593 -23.5266013),20,METROPOLITANA DE SÃO PAULO,35,205.5162752654065,303.2688101203377,466.22512286226333
Rua Doutor Fleury Silveira,Vila Santa Maria,23,1,1,Casa,700,855,-23.4896093,-46.670416,POINT (-46.670416 -23.4896093),20,METROPOLITANA DE SÃO PAULO,35,58.6658059359389,407.2220988445932,883.4614296582162
Rua Hermínio Lemos,Cambuci,15,1,0,Studio e kitnet,1150,1194,-23.5676498,-46.6229699,POINT (-46.6229699 -23.5676498),20,METROPOLITANA DE SÃO PAULO,35,91.052114590073,168.73942765415535,874.6562058664746
Rua Doutor Bento Teobaldo Ferraz,Várzea da Barra Funda,31,1,0,Apartamento,2100,2429,-23.5248504,-46.6711222,POINT (-46.6711222 -23.5248504),20,METROPOLITANA DE SÃO PAULO,35,343.5462364902309,861.6498659183811,371.3697112907091
Avenida Doutor Bernardino Brito Fonseca de Carvalho,Vila Talarico,62,3,1,Apartamento,1700,2217,-23.531677,-46.5212241,POINT (-46.5212241 -23.531677),20,METROPOLITANA DE SÃO PAULO,35,303.1252632288511,620.1801322937343,1085.399397301005
Rua do Tatuapé,Maranhão,32,1,0,Apartamento,1550,1795,-23.5306814,-46.5629722,POINT (-46.5629722 -23.5306814),20,METROPOLITANA DE SÃO PAULO,35,78.86992947994283,442.77160378893495,304.5980801671878
Rua Monsenhor Francisco de Paula,Vila Aricanduva,46,2,0,Apartamento,1799,1928,-23.5362241,-46.5398327,POINT (-46.5398327 -23.5362241),20,METROPOLITANA DE SÃO PAULO,35,92.39271048179518,376.0855531194845,1215.5273706507955
Rua Doutor Artur Rudge Ramos,Vila Caminho do Mar,98,2,1,Casa,1700,1841,-23.665122,-46.567362,POINT (-46.567362 -23.665122),20,METROPOLITANA DE SÃO PAULO,35,3200.7631551235186,3451.401893156258,5159.668309588051
Rua Marquês Maricá,Sacomã,38,1,0,Studio e kitnet,1030,1053,-23.6140288,-46.5982077,POINT (-46.5982077 -23.6140288),20,METROPOLITANA DE SÃO PAULO,35,174.3110775356873,378.63158304747776,1056.492707204485
Rua Nossa Senhora Acheropita,Vila Santa Clara,42,1,1,Casa,1600,1715,-23.5798603,-46.5680818,POINT (-46.5680818 -23.5798603),20,METROPOLITANA DE SÃO PAULO,35,96.07730802589153,460.709296381029,1596.0256703352175
Rua Tanque Velho,Vila Nivi,42,2,0,Casa em condomínio,1500,1625,-23.4804217,-46.5926675,POINT (-46.5926675 -23.4804217),20,METROPOLITANA DE SÃO PAULO,35,216.7313276288607,546.9138599167579,1067.0031617015113
Avenida dos Ourives,Jardim São Savério,41,2,0,Apartamento,1300,1750,-23.6539478,-46.6124891,POINT (-46.6124891 -23.6539478),20,METROPOLITANA DE SÃO PAULO,35,207.14528223121334,416.449665852295,1495.6784291892152
Rua Olímpio Portugal,Mooca,38,1,1,Apartamento,1550,1913,-23.5562916,-46.601464,POINT (-46.601464 -23.5562916),20,METROPOLITANA DE SÃO PAULO,35,271.7649833357428,222.78153547121101,792.4964487808406
Avenida Monteiro Lobato,Macedo,28,1,1,Studio e kitnet,2100,2495,-23.4647321,-46.5129203,POINT (-46.5129203 -23.4647321),20,METROPOLITANA DE SÃO PAULO,35,2656.7478120989413,2760.380853601892,4056.959848461247
Rua Fonseca da Costa,Bosque da Saúde,209,3,2,Casa,6000,6674,-23.6212296,-46.6255767,POINT (-46.6255767 -23.6212296),20,METROPOLITANA DE SÃO PAULO,35,293.60102287300384,733.3070304204575,192.00047176786464
Rua Bartholomeu do Canto,Vila Palmeiras,31,1,0,Apartamento,1700,2166,-23.5027205,-46.6859103,POINT (-46.6859103 -23.5027205),20,METROPOLITANA DE SÃO PAULO,35,435.6452866131596,873.6054317224776,1093.3865899394307
Rua Natividade Saldanha,São Lucas,19,0,0,Studio e kitnet,850,1052,-23.59294,-46.5565614,POINT (-46.5565614 -23.59294),20,METROPOLITANA DE SÃO PAULO,35,145.25673898360867,610.2135667727671,910.9723427000716
Rua Antônio Gomes Ferreira,Parque Fongaro,32,2,0,Apartamento,1100,1492,-23.6339516,-46.5941399,POINT (-46.5941399 -23.6339516),20,METROPOLITANA DE SÃO PAULO,35,283.06713325433236,521.3807213720211,1408.956706534632
Rua Jovina Maria de Jesus,Jardim das Acácias,209,4,2,Casa,6950,7722,-23.6231918,-46.687339,POINT (-46.687339 -23.6231918),20,METROPOLITANA DE SÃO PAULO,35,44.48759364383928,276.4737163803093,1205.122726488157
Rua Capitao Avelino Carneiro,Penha de França,37,1,0,Apartamento,1490,2017,-23.5229661,-46.5486402,POINT (-46.5486402 -23.5229661),20,METROPOLITANA DE SÃO PAULO,35,100.62410897153939,452.89551169853905,315.11374015787453
Rua Maria José Rangel,Vila São Paulo,65,2,1,Casa,2200,2293,-23.6560774,-46.6711726,POINT (-46.6711726 -23.6560774),20,METROPOLITANA DE SÃO PAULO,35,30.519575118352236,79.52527275256068,1959.9856038271296
Rua Doutor Ferreira Lopes,Vila Sofia,70,3,2,Apartamento,2100,3315,-23.6569475,-46.692619,POINT (-46.692619 -23.6569475),20,METROPOLITANA DE SÃO PAULO,35,70.23123091062317,1003.4802343007445,886.7548867703601
Rua Edmundo Luís de Nóbrega Teixeira,Campo Grande,114,4,2,Casa,3500,3998,-23.6679817,-46.6828891,POINT (-46.6828891 -23.6679817),20,METROPOLITANA DE SÃO PAULO,35,250.14163926752408,816.5293801811247,301.621095425755
Rua Oscar Freire,Cerqueira César,55,2,0,Apartamento,3950,5097,-23.5650996,-46.66673,POINT (-46.66673 -23.5650996),20,METROPOLITANA DE SÃO PAULO,35,306.49294465304314,915.29494909321,391.53830040641765
Rua Almirante Brasil,Mooca,50,2,1,Apartamento,1700,2424,-23.5505419,-46.6074398,POINT (-46.6074398 -23.5505419),20,METROPOLITANA DE SÃO PAULO,35,175.98647954547909,546.1901148125779,1044.3046964693435
Avenida Yervant Kissajikian,Vila Constança,59,3,1,Apartamento,2100,2573,-23.6660255,-46.6767908,POINT (-46.6767908 -23.6660255),20,METROPOLITANA DE SÃO PAULO,35,168.65505713212514,838.5841301779998,744.9302432440679
Rua Professor José Miziara,Santa Teresinha,55,2,1,Apartamento,1900,2532,-23.4897222,-46.6391261,POINT (-46.6391261 -23.4897222),20,METROPOLITANA DE SÃO PAULO,35,194.79110101834516,543.0554027101443,944.5741821204315
Avenida Diógenes Ribeiro de Lima,Alto da Lapa,70,2,1,Apartamento,2450,2955,-23.5354605,-46.7184678,POINT (-46.7184678 -23.5354605),20,METROPOLITANA DE SÃO PAULO,35,57.30369944065299,462.8537822067769,979.206346229645
Rua Iguaré,Tatuapé,54,2,1,Apartamento,1400,2069,-23.531759,-46.5827501,POINT (-46.5827501 -23.531759),20,METROPOLITANA DE SÃO PAULO,35,404.310757814707,765.2257052350881,174.95448556782674
Rua Diogo de Oliveira,Sítio do Morro,50,2,0,Apartamento,1590,1852,-23.5019409,-46.6687303,POINT (-46.6687303 -23.5019409),20,METROPOLITANA DE SÃO PAULO,35,159.70194238416755,415.8586766867875,667.941939810624
Rua Votupoca,Vila Ipojuca,90,4,2,Apartamento,4200,5668,-23.5330242,-46.704804,POINT (-46.704804 -23.5330242),20,METROPOLITANA DE SÃO PAULO,35,145.24617155717874,392.6112427200755,430.51392138988274
Rua Doutor Bento Teobaldo Ferraz,Várzea da Barra Funda,30,1,0,Apartamento,2122,2453,-23.5248504,-46.6711222,POINT (-46.6711222 -23.5248504),20,METROPOLITANA DE SÃO PAULO,35,343.5462364902309,861.6498659183811,371.3697112907091
Avenida Miguel Frias E Vasconcelos,Jaguaré,80,2,0,Apartamento,3200,4187,-23.5544759,-46.7427941,POINT (-46.7427941 -23.5544759),20,METROPOLITANA DE SÃO PAULO,35,241.7531928423549,1031.934020892013,597.3514362316691
Avenida Santa Marina,Água Branca,78,2,2,Apartamento,4000,4712,-23.5158485,-46.6909303,POINT (-46.6909303 -23.5158485),20,METROPOLITANA DE SÃO PAULO,35,36.139701969256755,1253.9557546160013,535.4003360545453
Rua Erva Imperial,Vila Alpina,45,2,1,Apartamento,1404,1853,-23.6008373,-46.5408341,POINT (-46.5408341 -23.6008373),20,METROPOLITANA DE SÃO PAULO,35,242.6582274129031,137.27348385950913,978.9523977319883
Rua Ponte Pensa,Parada Inglesa,37,2,0,Apartamento,1650,1949,-23.4843493,-46.6051691,POINT (-46.6051691 -23.4843493),20,METROPOLITANA DE SÃO PAULO,35,130.7906350431318,819.2563232749399,333.1053680294788
Rua Speers,Vila Sao Pedro,15,1,0,Studio e kitnet,950,1487,-23.6424873,-46.5286875,POINT (-46.5286875 -23.6424873),20,METROPOLITANA DE SÃO PAULO,35,2931.9618968607824,3073.2374585360976,3619.932759974799
Rua Bento Freitas,República,29,1,0,Studio e kitnet,1300,1682,-23.545592,-46.6455747,POINT (-46.6455747 -23.545592),20,METROPOLITANA DE SÃO PAULO,35,84.502578861416,203.0873679534151,317.35561897854626
Avenida Bartholomeu de Carlos,Jardim Flor da Montanha,38,1,1,Studio e kitnet,1554,2238,-23.4399329,-46.5439573,POINT (-46.5439573 -23.4399329),20,METROPOLITANA DE SÃO PAULO,35,2481.805487401725,2914.6420752741674,3663.8565738043026
Rua Coronel Deraldo Jordão,Ipiranga,120,3,3,Casa,5500,5962,-23.6002693,-46.6193007,POINT (-46.6193007 -23.6002693),20,METROPOLITANA DE SÃO PAULO,35,123.12969110428797,492.68809930290826,1297.7334496388123
Rua Bela Cintra,Consolação,55,1,0,Apartamento,3899,4467,-23.5564177,-46.6618937,POINT (-46.6618937 -23.5564177),20,METROPOLITANA DE SÃO PAULO,35,328.7736043387501,512.3511042390743,89.98792432833143
Avenida Benigno Carrera,Vila Campestre,35,1,0,Casa,874,961,-23.6616964,-46.6495484,POINT (-46.6495484 -23.6616964),20,METROPOLITANA DE SÃO PAULO,35,201.3848650165549,181.15560046645768,1198.4112410270473
Avenida Tiradentes,Luz,48,2,1,Apartamento,2860,3406,-23.5310788,-46.6321542,POINT (-46.6321542 -23.5310788),20,METROPOLITANA DE SÃO PAULO,35,178.3673538215404,776.3963463868114,193.96873039605597
Rua do Chico Nunes,Vila Andrade,36,2,0,Apartamento,980,1138,-23.6275978,-46.7477784,POINT (-46.7477784 -23.6275978),20,METROPOLITANA DE SÃO PAULO,35,114.78185333863726,638.0482971229058,1103.4854810846527
Rua Frei Gaspar,Mooca,33,1,0,Apartamento,3100,3600,-23.5483636,-46.6062813,POINT (-46.6062813 -23.5483636),20,METROPOLITANA DE SÃO PAULO,35,287.18056602277113,286.61642745636163,950.2934239815927
Rua Pedro de Melo Sousa,Vila Arcadia,39,1,0,Casa,938,1019,-23.5040622,-46.7023946,POINT (-46.7023946 -23.5040622),20,METROPOLITANA DE SÃO PAULO,35,178.8137108574911,723.456652740224,379.3749980201132
Rua Joaquim Oliveira Freitas,Vila Mangalot,51,2,1,Apartamento,920,1572,-23.4923992,-46.7451314,POINT (-46.7451314 -23.4923992),20,METROPOLITANA DE SÃO PAULO,35,76.73045188846271,381.96710357646447,871.1032496668314
Avenida Senador José Ermírio de Moraes,Tremembé,62,2,1,Apartamento,2300,2952,-23.4524981,-46.6145939,POINT (-46.6145939 -23.4524981),20,METROPOLITANA DE SÃO PAULO,35,86.66782858395857,581.2959106548059,1200.4130718221286
Rua Domingos Lopes da Silva,Vila Suzana,35,1,1,Apartamento,959,1840,-23.6180782,-46.7376732,POINT (-46.7376732 -23.6180782),20,METROPOLITANA DE SÃO PAULO,35,22.942898686442174,830.2287125834645,1483.9191967671643
Avenida Ipiranga,República,29,1,0,Studio e kitnet,1725,2142,-23.5402087,-46.6374753,POINT (-46.6374753 -23.5402087),20,METROPOLITANA DE SÃO PAULO,35,214.06013817777665,649.3513863356117,393.498387452718
Rua Porto de Palos,Jardim Peri,41,2,0,Apartamento,1000,1408,-23.474168,-46.7116577,POINT (-46.7116577 -23.474168),20,METROPOLITANA DE SÃO PAULO,35,185.2388580085749,314.47696721701607,1111.6251589862554
Rua Fernando Dondon,Tatuapé,24,1,0,Studio e kitnet,1600,1964,-23.5464234,-46.5620488,POINT (-46.5620488 -23.5464234),20,METROPOLITANA DE SÃO PAULO,35,38.49687187546565,332.4758214686735,1495.6839582021557
Rua Tenente-coronel Soares Neiva,Vila Aricanduva,37,2,0,Apartamento,1500,1728,-23.5340441,-46.5426343,POINT (-46.5426343 -23.5340441),20,METROPOLITANA DE SÃO PAULO,35,109.44003664293759,634.1347265941844,1068.8109955442212
Rua Conselheiro Ramalho,Bela Vista,26,1,0,Studio e kitnet,1953,2338,-23.5577177,-46.6443949,POINT (-46.6443949 -23.5577177),20,METROPOLITANA DE SÃO PAULO,35,175.5178920208365,257.9753206462655,322.51064918412527
Rua Tomé de Lara,Tucuruvi,41,2,0,Apartamento,1800,2019,-23.4793839,-46.6090902,POINT (-46.6090902 -23.4793839),20,METROPOLITANA DE SÃO PAULO,35,110.20918886818765,367.33418669239444,491.0320741305561
Rua Maria Zélia,Piqueri,41,1,1,Casa,1550,1624,-23.5030391,-46.7122887,POINT (-46.7122887 -23.5030391),20,METROPOLITANA DE SÃO PAULO,35,155.05018122029563,903.0259191565012,729.5700718373491
Rua Ribeiro Marcondes,Vila Prudente,32,1,0,Studio e kitnet,1350,1502,-23.5817944,-46.5804169,POINT (-46.5804169 -23.5817944),20,METROPOLITANA DE SÃO PAULO,35,164.96523823132685,239.65832470648803,320.01409322571163
Avenida Ajarani,Cidade Patriarca,44,2,1,Apartamento,1800,2527,-23.5408435,-46.51231,POINT (-46.51231 -23.5408435),20,METROPOLITANA DE SÃO PAULO,35,168.20275635603778,404.4808193319965,2265.127827397243
Rua Antônio de Macedo Soares,Campo Belo,50,1,1,Apartamento,3350,4029,-23.6242797,-46.6770146,POINT (-46.6770146 -23.6242797),20,METROPOLITANA DE SÃO PAULO,35,426.627551392174,935.8206857010979,1871.906321733494
Avenida Rubens Fraga de Toledo Arruda,Engenheiro Goulart,46,2,0,Apartamento,1400,1758,-23.4963252,-46.5117151,POINT (-46.5117151 -23.4963252),20,METROPOLITANA DE SÃO PAULO,35,204.37083968212877,714.0926594865367,1569.9794040907996
Avenida Nossa Senhora do Sabará,Vila Sofia,69,2,1,Apartamento,2170,3053,-23.6890767,-46.6798872,POINT (-46.6798872 -23.6890767),20,METROPOLITANA DE SÃO PAULO,35,81.65507087122107,986.3562193498832,1495.662175379916
Rua Raul Bispo dos Santos,Vila Pedra Branca,60,1,0,Casa,1100,1156,-23.4537342,-46.6440698,POINT (-46.6440698 -23.4537342),20,METROPOLITANA DE SÃO PAULO,35,131.9389528459194,834.7911804392147,820.4713400486909
Alameda Barros,Santa Cecília,30,1,0,Studio e kitnet,2327,2767,-23.536349,-46.6566334,POINT (-46.6566334 -23.536349),20,METROPOLITANA DE SÃO PAULO,35,11.603235441690975,334.5128164705158,579.3424363278288
Avenida Aparecida do Rio Negro,Jardim Peri,43,2,1,Apartamento,1732,2078,-23.5008579,-46.7199044,POINT (-46.7199044 -23.5008579),20,METROPOLITANA DE SÃO PAULO,35,245.96944632052333,880.0811595270094,639.4839817708762
Rua Desembargador Aragão,Vila Mariana,40,1,1,Studio e kitnet,4900,5471,-23.5931034,-46.6310962,POINT (-46.6310962 -23.5931034),20,METROPOLITANA DE SÃO PAULO,35,158.6705719745719,328.91060142050713,410.16552166102855
Rua Brigadeiro Tobias,Centro Histórico de São Paulo,32,1,0,Studio e kitnet,2000,2754,-23.5356662,-46.6339209,POINT (-46.6339209 -23.5356662),20,METROPOLITANA DE SÃO PAULO,35,420.918730796461,902.0514839029252,133.37233628987408
Rua Antônio Gomes Ferreira,Sacomã,32,2,0,Apartamento,1350,1652,-23.6339516,-46.5941399,POINT (-46.5941399 -23.6339516),20,METROPOLITANA DE SÃO PAULO,35,283.06713325433236,521.3807213720211,1408.956706534632
Rua Iquiririm,Vila Indiana,28,1,0,Studio e kitnet,1426,1928,-23.5723715,-46.7301476,POINT (-46.7301476 -23.5723715),20,METROPOLITANA DE SÃO PAULO,35,61.326890406635904,666.2901722407365,739.1948919636296
Rua Manuel Leiroz,Vila Penteado,41,2,0,Apartamento,1500,1958,-23.5137743,-46.5203076,POINT (-46.5203076 -23.5137743),20,METROPOLITANA DE SÃO PAULO,35,498.66834085027375,745.4284872860823,1813.9508386857315
Praça Doutor Mário Margarido,Liberdade,30,1,0,Apartamento,1092,1474,-23.555078,-46.6288103,POINT (-46.6288103 -23.555078),20,METROPOLITANA DE SÃO PAULO,35,98.07338071191748,380.39965788076285,393.9584453165448
Rua José Arzão,Vila Andrade,51,2,0,Apartamento,2480,3529,-23.6188296,-46.7448433,POINT (-46.7448433 -23.6188296),20,METROPOLITANA DE SÃO PAULO,35,101.80737874537164,211.93423907776247,1279.3158451185707
Avenida Padre Arlindo Vieira,Vila Vermelha,71,3,2,Apartamento,1900,2941,-23.6455515,-46.6071237,POINT (-46.6071237 -23.6455515),20,METROPOLITANA DE SÃO PAULO,35,237.22203027006574,525.9716507327357,1251.909232637132
Rua Luís Filipe Alberti,Jardim Maringá,41,2,1,Apartamento,1400,1951,-23.5548398,-46.5141606,POINT (-46.5141606 -23.5548398),20,METROPOLITANA DE SÃO PAULO,35,311.7807371984612,208.8453950720051,1345.175960895675
Rua Augusto Farina,Jardim Bonfiglioli,30,1,0,Studio e kitnet,1260,1338,-23.5814571,-46.7406785,POINT (-46.7406785 -23.5814571),20,METROPOLITANA DE SÃO PAULO,35,200.4081027517677,354.5295883598881,521.7515337930529
Rua João José Pacheco,Jardim Vila Mariana,22,0,0,Studio e kitnet,2200,2808,-23.593823,-46.62384,POINT (-46.62384 -23.593823),20,METROPOLITANA DE SÃO PAULO,35,88.2326866679465,382.9318959936977,988.0206352975262
Rua Coronel Mursa,Brás,20,1,1,Apartamento,2600,2886,-23.548639,-46.6163579,POINT (-46.6163579 -23.548639),20,METROPOLITANA DE SÃO PAULO,35,58.53616183688435,930.3737486630262,531.7644856774787
Rua Pangaré,Vila Butantã,38,2,1,Apartamento,1995,2572,-23.5648321,-46.7435774,POINT (-46.7435774 -23.5648321),20,METROPOLITANA DE SÃO PAULO,35,253.04723668326534,121.86977315343108,506.50652608804313
Rua Bartholomeu do Canto,Vila Palmeiras,34,2,0,Apartamento,1400,1754,-23.5027205,-46.6859103,POINT (-46.6859103 -23.5027205),20,METROPOLITANA DE SÃO PAULO,35,435.6452866131596,873.6054317224776,1093.3865899394307
Avenida do Cursino,Vila Gumercindo,72,3,2,Apartamento,4000,4154,-23.6056639,-46.6161616,POINT (-46.6161616 -23.6056639),20,METROPOLITANA DE SÃO PAULO,35,48.00032278176889,773.8565733909578,810.114588190494
Avenida Paes de Barros,Mooca,98,3,1,Apartamento,3000,3889,-23.5675099,-46.5911401,POINT (-46.5911401 -23.5675099),20,METROPOLITANA DE SÃO PAULO,35,125.44021674294264,293.59566739987264,1442.8070216322885
Avenida Engenheiro Thomaz Magalhães,Sítio da Figueira,55,2,1,Apartamento,1750,2168,-23.6032216,-46.5519925,POINT (-46.5519925 -23.6032216),20,METROPOLITANA DE SÃO PAULO,35,119.6505265502881,376.4168756391893,1019.2144231160219
Rua Bento Vieira,Ipiranga,55,2,1,Apartamento,2350,3310,-23.5791229,-46.6036719,POINT (-46.6036719 -23.5791229),20,METROPOLITANA DE SÃO PAULO,35,235.43809163521547,603.7948741249568,675.7005012865326
Rua Oscar Freire,Pinheiros,19,1,0,Studio e kitnet,3400,3905,-23.5577926,-46.6738109,POINT (-46.6738109 -23.5577926),20,METROPOLITANA DE SÃO PAULO,35,118.43530313007429,165.8761499161964,297.9851638241592
Rua Francisco Luiz de Souza Júnior,Água Branca,44,2,0,Apartamento,1750,2178,-23.5143643,-46.6888358,POINT (-46.6888358 -23.5143643),20,METROPOLITANA DE SÃO PAULO,35,236.30790210497275,1207.9049468493283,613.7358584160878
Rua Heitor Penteado,Sumarezinho,55,2,1,Apartamento,2300,3039,-23.5461784,-46.6911614,POINT (-46.6911614 -23.5461784),20,METROPOLITANA DE SÃO PAULO,35,270.924937410567,105.71140236279206,1155.7007214170071
Rua Henrique Sertório,Tatuapé,24,1,0,Studio e kitnet,1900,2430,-23.5394195,-46.5782329,POINT (-46.5782329 -23.5394195),20,METROPOLITANA DE SÃO PAULO,35,40.46146954891061,674.2993308012723,214.71685500014823
Largo do Arouche,República,30,1,0,Studio e kitnet,2390,3113,-23.5410441,-46.64537328059034,POINT (-46.64537328059034 -23.5410441),20,METROPOLITANA DE SÃO PAULO,35,301.3745190185822,366.91462416182685,93.33819016932742
Rua Alfredo Pujol,Santana,26,1,0,Studio e kitnet,2500,2940,-23.5001965,-46.6310225,POINT (-46.6310225 -23.5001965),20,METROPOLITANA DE SÃO PAULO,35,150.51957608318637,352.84284486616804,527.1087152883437
Rua Gravi,Vila da Saúde,35,1,0,Casa,1400,1424,-23.6125702,-46.6373773,POINT (-46.6373773 -23.6125702),20,METROPOLITANA DE SÃO PAULO,35,193.51546259484098,817.8746186792589,1350.467931279389
Rua Guaraja,Vila Mazzei,70,2,1,Apartamento,1600,2131,-23.4736287,-46.6010535,POINT (-46.6010535 -23.4736287),20,METROPOLITANA DE SÃO PAULO,35,90.27403448085266,580.5315055967619,768.083160431359
Avenida João Dias,Santo Amaro,67,2,1,Apartamento,1900,2964,-23.6461864,-46.708651,POINT (-46.708651 -23.6461864),20,METROPOLITANA DE SÃO PAULO,35,412.74958661691454,462.1361986849025,35.44552299477417
Rua Cristóvão Colombo,Jardim Vila Galvão,45,2,1,Apartamento,1443,1934,-23.4621257,-46.5589622,POINT (-46.5589622 -23.4621257),20,METROPOLITANA DE SÃO PAULO,35,964.6585276195054,1721.8459818547908,2353.986953974463
Rua Capitão Teófilo,Centro,94,3,1,Apartamento,2200,2926,-23.4684118,-46.5315749,POINT (-46.5315749 -23.4684118),20,METROPOLITANA DE SÃO PAULO,35,3297.9903339201337,3227.781903501248,3391.325316426731
Rua Avanhandava,Bela Vista,24,1,0,Studio e kitnet,2350,2892,-23.5523179,-46.6480901,POINT (-46.6480901 -23.5523179),20,METROPOLITANA DE SÃO PAULO,35,71.26083504994021,518.6347283506605,257.6024873573163
Avenida Nove de Julho,Bela Vista,26,1,0,Studio e kitnet,1250,1629,-23.5606299,-46.6551101,POINT (-46.6551101 -23.5606299),20,METROPOLITANA DE SÃO PAULO,35,451.72575867574346,134.36912892510114,110.90366248546162
Rua Catulo da Paixão Cearense,Vila da Saúde,75,3,2,Apartamento,3700,5068,-23.6143354,-46.6290832,POINT (-46.6290832 -23.6143354),20,METROPOLITANA DE SÃO PAULO,35,89.78810326090233,470.1583751729842,661.888389328513
Avenida Raimundo Pereira de Magalhães,Jardim Iris,45,2,0,Apartamento,3000,3621,-23.4855686,-46.7246819,POINT (-46.7246819 -23.4855686),20,METROPOLITANA DE SÃO PAULO,35,123.37648018257839,122.44396098294897,728.2892439005404
Rua Jequitinhonha,Campestre,85,3,2,Apartamento,2047,2691,-23.6393171,-46.5482293,POINT (-46.5482293 -23.6393171),20,METROPOLITANA DE SÃO PAULO,35,3149.7097084288525,3856.027967980791,4214.065383153128
Rua Major Rubéns Florentino Vaz,Vila Pirajussara,14,1,0,Studio e kitnet,1750,1818,-23.5720146,-46.717263,POINT (-46.717263 -23.5720146),20,METROPOLITANA DE SÃO PAULO,35,208.3647186887768,226.66630815960968,395.05714988994873
Avenida Sapopemba,Jardim Planalto,32,2,0,Apartamento,1800,2169,-23.6108277,-46.5041976,POINT (-46.5041976 -23.6108277),20,METROPOLITANA DE SÃO PAULO,35,269.77205429893877,289.2277646506663,726.0231710080427
Avenida do Cursino,Vila Moraes,63,2,1,Apartamento,2400,2993,-23.6036363,-46.6154476,POINT (-46.6154476 -23.6036363),20,METROPOLITANA DE SÃO PAULO,35,141.50487103324994,823.3747408306618,884.7090890766058
Avenida Carlos Ferreira Endres,Vila Endres,50,1,0,Apartamento,916,1000,-23.4870898,-46.5452387,POINT (-46.5452387 -23.4870898),20,METROPOLITANA DE SÃO PAULO,35,1876.9179591409627,1898.8999390939646,2227.686084040396
Rua dos Democratas,Vila Monte Alegre,48,2,1,Apartamento,1900,2774,-23.6289782,-46.6330698,POINT (-46.6330698 -23.6289782),20,METROPOLITANA DE SÃO PAULO,35,255.2796644045378,439.00014335238444,1185.9060534752077
Rua Dom Estevão Pimentel,Chácara Belenzinho,56,3,1,Apartamento,2000,2937,-23.5723568,-46.5439395,POINT (-46.5439395 -23.5723568),20,METROPOLITANA DE SÃO PAULO,35,178.9649642583471,625.7835168750655,255.5414569292021
Avenida dos Ourives,Jardim Sao Saverio,43,2,0,Apartamento,1300,1700,-23.6539478,-46.6124891,POINT (-46.6124891 -23.6539478),20,METROPOLITANA DE SÃO PAULO,35,207.14528223121334,416.449665852295,1495.6784291892152
Avenida Piassanguaba,Planalto Paulista,27,1,0,Casa,1200,1343,-23.6010973,-46.6540684,POINT (-46.6540684 -23.6010973),20,METROPOLITANA DE SÃO PAULO,35,266.5995693680917,284.46412360547333,915.7153460038076
Rua Tenente Coronel Soares Neiva,Vila Aricanduva,35,2,0,Apartamento,1481,1788,-23.5340441,-46.5426343,POINT (-46.5426343 -23.5340441),20,METROPOLITANA DE SÃO PAULO,35,109.44003664293759,634.1347265941844,1068.8109955442212
Rua Dom Paulo Pedrosa,Real Parque,80,1,1,Apartamento,3000,4206,-23.6101534,-46.708758,POINT (-46.708758 -23.6101534),20,METROPOLITANA DE SÃO PAULO,35,182.01541685713102,308.1922412089201,424.2189605875313
Rua Gomes de Carvalho,Vila Olímpia,75,3,1,Apartamento,3200,4253,-23.5948667,-46.6896067,POINT (-46.6896067 -23.5948667),20,METROPOLITANA DE SÃO PAULO,35,692.0855627832143,918.8162661192042,226.4484225618993
Rua Camargo Aranha,Pacaembu,350,4,2,Casa,10400,11660,-23.5424904,-46.6684716,POINT (-46.6684716 -23.5424904),20,METROPOLITANA DE SÃO PAULO,35,164.71285413645717,769.0179343819733,527.7717706181433
Rua Helvétia,Campos Elíseos,45,1,1,Apartamento,3100,3862,-23.5346361,-46.6436693,POINT (-46.6436693 -23.5346361),20,METROPOLITANA DE SÃO PAULO,35,197.89137758099628,275.81992864428946,240.42748084999528
Rua Gravataí,Consolação,24,1,0,Studio e kitnet,3000,3575,-23.5488591,-46.647762,POINT (-46.647762 -23.5488591),20,METROPOLITANA DE SÃO PAULO,35,21.232083959966964,340.7408053173813,186.16604284387668
Rua Mourato Coelho,Pinheiros,34,1,1,Studio e kitnet,3231,4083,-23.566351,-46.6856195,POINT (-46.6856195 -23.566351),20,METROPOLITANA DE SÃO PAULO,35,254.64651035366097,116.32693706113032,311.61159161738334
Rua Paim,Bela Vista,50,1,1,Apartamento,4000,4918,-23.5548176,-46.6490388,POINT (-46.6490388 -23.5548176),20,METROPOLITANA DE SÃO PAULO,35,64.41134365722449,438.6323934430468,356.9049809416003
Rua Cásper Líbero,Paulicéia,65,3,1,Apartamento,1560,2361,-23.6685168,-46.5914282,POINT (-46.5914282 -23.6685168),20,METROPOLITANA DE SÃO PAULO,35,2265.8706649999863,2621.521706128889,4067.0108493366142
Rua Armando Pinelli,Taboão,54,2,1,Apartamento,1100,1743,-23.6647543,-46.6091429,POINT (-46.6091429 -23.6647543),20,METROPOLITANA DE SÃO PAULO,35,822.175119778399,980.2291919220014,2731.9459935287355
Rua José Bento,Cambuci,41,2,0,Apartamento,2090,2511,-23.5634221,-46.6164939,POINT (-46.6164939 -23.5634221),20,METROPOLITANA DE SÃO PAULO,35,145.60375736154356,644.5751954143659,1418.6518980241935
Rua Alves Guimarães,Pinheiros,33,1,0,Studio e kitnet,3417,4018,-23.5516401,-46.6811417,POINT (-46.6811417 -23.5516401),20,METROPOLITANA DE SÃO PAULO,35,105.43234776632328,448.37040676263626,742.9829290102629
Rua Conde de São Joaquim,Bela Vista,35,1,1,Apartamento,1600,2490,-23.5560084,-46.6395825,POINT (-46.6395825 -23.5560084),20,METROPOLITANA DE SÃO PAULO,35,101.75975776052739,83.47666578077555,386.004398199699
Praça Alberto Lion,Cambuci,34,2,0,Apartamento,1443,1829,-23.562555,-46.61134046799562,POINT (-46.61134046799562 -23.562555),20,METROPOLITANA DE SÃO PAULO,35,419.1972385668364,881.5951692989019,1623.4467085449214
Rua Francisca Augusta da Rocha,Jardim Mariliza,42,2,0,Casa,1000,1126,-23.4812887,-46.7065304,POINT (-46.7065304 -23.4812887),20,METROPOLITANA DE SÃO PAULO,35,299.7609736237175,444.64042156997175,550.3043389340812
Rua Danton Vampre,Jardim Maringá,150,3,1,Casa,1880,1960,-23.5490678,-46.510079,POINT (-46.510079 -23.5490678),20,METROPOLITANA DE SÃO PAULO,35,247.26267209414956,472.0939795496858,1833.2301854294808
Rua Paulistânia,Sumarezinho,31,1,0,Studio e kitnet,2620,3191,-23.5467932,-46.6921502,POINT (-46.6921502 -23.5467932),20,METROPOLITANA DE SÃO PAULO,35,208.04100282086821,152.67930842161005,1169.4238307709404
Rua Marie Nader Calfat,Jardim Ampliação,38,1,1,Studio e kitnet,2400,3014,-23.6276937,-46.7297786,POINT (-46.7297786 -23.6276937),20,METROPOLITANA DE SÃO PAULO,35,93.16444651517132,626.804552799704,751.7675609837612
Praça Conde Pedro Leonelli,Vila Rosália,57,2,1,Apartamento,1750,2298,-23.44831115,-46.556695993193216,POINT (-46.556695993193216 -23.44831115),20,METROPOLITANA DE SÃO PAULO,35,1607.851474217909,1661.484842723629,2190.9734783985673
Rua Adele Zarzur,Jardim São José (zona Norte),50,1,0,Casa,850,887,-23.4810033,-46.7129606,POINT (-46.7129606 -23.4810033),20,METROPOLITANA DE SÃO PAULO,35,33.95771083294136,465.3808419594819,625.6995102779798
Rua José Pereira Barreto,Jardim Clímax,45,1,1,Casa,1200,1251,-23.6411543,-46.6090478,POINT (-46.6090478 -23.6411543),20,METROPOLITANA DE SÃO PAULO,35,273.38079036437836,419.2590238751041,982.4283063807326
Rua Rocha,Bela Vista,29,1,0,Studio e kitnet,1400,1721,-23.5562382,-46.6498965,POINT (-46.6498965 -23.5562382),20,METROPOLITANA DE SÃO PAULO,35,59.65065773662991,258.63330473420444,343.7006082602564
Rua Itajaí,Mooca,76,3,1,Apartamento,4200,5319,-23.5507791,-46.6008872,POINT (-46.6008872 -23.5507791),20,METROPOLITANA DE SÃO PAULO,35,200.86901536628628,260.6225434463904,378.620299628417
Rua Araguaia,Vila Curuca,64,2,1,Apartamento,3600,4459,-23.6446692,-46.5188522,POINT (-46.5188522 -23.6446692),20,METROPOLITANA DE SÃO PAULO,35,2684.5211027304117,2769.521865326472,3113.870369548016
Rua Eugênio de Medeiros,Pinheiros,34,1,1,Apartamento,4850,5677,-23.5703061,-46.7001637,POINT (-46.7001637 -23.5703061),20,METROPOLITANA DE SÃO PAULO,35,429.37846915922063,844.8204585200168,546.6345210386756
Rua Pascoal Ranieri Mazzilli,Vila Mendes,67,2,1,Apartamento,2448,3169,-23.6057243,-46.525905,POINT (-46.525905 -23.6057243),20,METROPOLITANA DE SÃO PAULO,35,315.2755687370227,518.1609219663106,1023.4911415736876
Avenida Condessa Elizabeth de Robiano,Penha de França,62,3,1,Apartamento,2100,2731,-23.529923,-46.58819,POINT (-46.58819 -23.529923),20,METROPOLITANA DE SÃO PAULO,35,35.71647153250163,682.2774451203552,705.304550447345
Avenida Leonardo da Vinci,Vila Guarani (z Sul),50,2,1,Apartamento,1450,2416,-23.6336538,-46.6368315,POINT (-46.6368315 -23.6336538),20,METROPOLITANA DE SÃO PAULO,35,175.74460323098572,538.2623119367008,684.0504653889986
Rua Bento Freitas,República,22,1,0,Studio e kitnet,2800,3329,-23.545592,-46.6455747,POINT (-46.6455747 -23.545592),20,METROPOLITANA DE SÃO PAULO,35,84.502578861416,203.0873679534151,317.35561897854626
Rua Desembargador Euclides da Silveira,Casa Verde,49,1,1,Apartamento,3500,4188,-23.507761,-46.6517593,POINT (-46.6517593 -23.507761),20,METROPOLITANA DE SÃO PAULO,35,188.71946339838107,911.322609251814,450.9118368078642
Rua Ribeiro do Vale,Brooklin Paulista,35,1,0,Studio e kitnet,3700,4384,-23.6061744,-46.6817105,POINT (-46.6817105 -23.6061744),20,METROPOLITANA DE SÃO PAULO,35,189.87471772913324,597.5731985660527,1286.9147722557357
Rua Palestina,Vila Mascote,130,3,1,Casa,4000,4311,-23.644053,-46.6682892,POINT (-46.6682892 -23.644053),20,METROPOLITANA DE SÃO PAULO,35,44.80715544454289,739.3511319981793,1246.7582255872524
Avenida João Pessoa,Jardim Utinga,62,2,1,Apartamento,1900,2406,-23.6191869,-46.5228999,POINT (-46.5228999 -23.6191869),20,METROPOLITANA DE SÃO PAULO,35,740.9772812891389,686.2194340086955,2044.3996349120353
Avenida Vereador José Diniz,Santo Amaro,25,1,0,Studio e kitnet,2600,3048,-23.6272108,-46.6845584,POINT (-46.6845584 -23.6272108),20,METROPOLITANA DE SÃO PAULO,35,273.75628442257437,235.36449250704896,1603.8680599614045
Rua José Mandotti,Vila Augusta,25,1,1,Studio e kitnet,1800,2418,-23.460647,-46.530253,POINT (-46.530253 -23.460647),20,METROPOLITANA DE SÃO PAULO,35,3746.6237362529578,4085.9490656625558,4235.036962211478
Rua Joaquim Rodrigues Costa,Vila Maria Alta,25,2,0,Casa,1001,1043,-23.500135,-46.5849322,POINT (-46.5849322 -23.500135),20,METROPOLITANA DE SÃO PAULO,35,265.72014708931675,577.6440493293169,1785.0642648733806
Avenida Cásper Líbero,Centro,27,1,0,Studio e kitnet,2000,2577,-23.5408823,-46.636466,POINT (-46.636466 -23.5408823),20,METROPOLITANA DE SÃO PAULO,35,289.4507026608207,695.240903294204,388.0297741098828
Avenida Giovanni Gronchi,Vila Andrade,98,3,2,Apartamento,2442,4507,-23.6277588,-46.7358968,POINT (-46.7358968 -23.6277588),20,METROPOLITANA DE SÃO PAULO,35,289.45131495794163,170.50760602146684,405.8250254699578
Rua Bispo Eugênio Demazemod 388 Apto 61,Vila Alpina,49,2,1,Apartamento,1050,1620,-23.5970192,-46.5610232,POINT (-46.5610232 -23.5970192),20,METROPOLITANA DE SÃO PAULO,35,233.4154453621283,528.1251913129169,1363.3996575008653
Rua Rego Freitas,República,20,1,0,Studio e kitnet,1640,2133,-23.5446445,-46.6466037,POINT (-46.6466037 -23.5446445),20,METROPOLITANA DE SÃO PAULO,35,144.79382653646687,242.3214853604841,270.694545330221
Rua Bela Cintra,Consolação,48,1,1,Apartamento,2600,3597,-23.5564177,-46.6618937,POINT (-46.6618937 -23.5564177),20,METROPOLITANA DE SÃO PAULO,35,328.7736043387501,512.3511042390743,89.98792432833143
Rua Guaianases,Campos Elíseos,38,1,1,Apartamento,1500,1998,-23.5393792,-46.6415185,POINT (-46.6415185 -23.5393792),20,METROPOLITANA DE SÃO PAULO,35,296.1133361316681,294.6782371073911,342.4401903539661
Rua Barão de Tatuí,Vila Buarque,21,1,0,Studio e kitnet,1000,1428,-23.536379,-46.6528834,POINT (-46.6528834 -23.536379),20,METROPOLITANA DE SÃO PAULO,35,229.82593347598828,254.9329079878162,757.2308839307811
Rua Pamplona,Cerqueira César,49,1,1,Apartamento,3000,3967,-23.5637036,-46.6537602,POINT (-46.6537602 -23.5637036),20,METROPOLITANA DE SÃO PAULO,35,323.81244917966694,439.35820529166944,103.4657073591208
Rua Professor Arnaldo João Semeraro,Jardim Santa Emilia,64,2,1,Apartamento,1550,2060,-23.649409,-46.5997873,POINT (-46.5997873 -23.649409),20,METROPOLITANA DE SÃO PAULO,35,160.7799181197714,845.7611394151185,2106.3269806446942
Rua Dona Elisa,Barra Funda,70,3,1,Apartamento,4800,5790,-23.5297569,-46.6630989,POINT (-46.6630989 -23.5297569),20,METROPOLITANA DE SÃO PAULO,35,90.2932827233009,362.66341962705064,297.27248341168763
Rua Cônego Vicente Miguel Marino,Barra Funda,99,3,2,Apartamento,4500,5566,-23.5266013,-46.6540593,POINT (-46.6540593 -23.5266013),20,METROPOLITANA DE SÃO PAULO,35,205.5162752654065,303.2688101203377,466.22512286226333
Rua Frei Caneca,Consolação,28,1,0,Studio e kitnet,1700,2366,-23.5531867,-46.6521291,POINT (-46.6521291 -23.5531867),20,METROPOLITANA DE SÃO PAULO,35,191.6631248676212,541.7808393187925,122.86044416448817
Rua Gustavo da Silveira,Vila Santa Catarina,160,4,1,Casa,3000,3137,-23.6489644,-46.6602756,POINT (-46.6602756 -23.6489644),20,METROPOLITANA DE SÃO PAULO,35,176.12407030222454,242.7670839233039,1268.9375778988606
Rua Arnaldo Cintra,Vila Moreira,49,2,1,Apartamento,1995,2636,-23.5277539,-46.5611838,POINT (-46.5611838 -23.5277539),20,METROPOLITANA DE SÃO PAULO,35,111.30390615859375,627.3189765987847,676.7075553849605
Rua Otto de Barros,Vila Santo Estéfano,58,2,2,Apartamento,2120,3223,-23.6234508,-46.6268146,POINT (-46.6268146 -23.6234508),20,METROPOLITANA DE SÃO PAULO,35,206.96247708658817,765.5359101356355,388.6773792683832
Rua Santa Izabel,Vila Augusta,66,2,2,Apartamento,2600,3254,-23.477748,-46.5417244,POINT (-46.5417244 -23.477748),20,METROPOLITANA DE SÃO PAULO,35,2057.2519773296963,2473.6780313443815,2746.9912118179077
Rua São Miguel,Bela Vista,35,1,1,Apartamento,2500,3296,-23.5551069,-46.6545922,POINT (-46.6545922 -23.5551069),20,METROPOLITANA DE SÃO PAULO,35,100.58108814151969,274.4663689893289,235.75502924023198
Rua Riskallah Jorge,Centro Histórico de São Paulo,28,0,0,Studio e kitnet,1207,1647,-23.5415578,-46.6353304,POINT (-46.6353304 -23.5415578),20,METROPOLITANA DE SÃO PAULO,35,229.19714645795858,633.1844937479071,433.8267100704887
Rua Nanuque,Vila Leopoldina,115,3,2,Apartamento,4450,6177,-23.5291752,-46.7273705,POINT (-46.7273705 -23.5291752),20,METROPOLITANA DE SÃO PAULO,35,141.85132213625965,753.0516452188036,484.81944157071905
Rua Olímpia de Almeida Prado,Barra Funda,33,1,1,Studio e kitnet,2550,3286,-23.5319565,-46.6571801,POINT (-46.6571801 -23.5319565),20,METROPOLITANA DE SÃO PAULO,35,154.6776036956755,411.1091855560652,355.2817033486396
Rua do Lavapés,Cambuci,45,2,0,Apartamento,2500,3046,-23.5622441,-46.6216806,POINT (-46.6216806 -23.5622441),20,METROPOLITANA DE SÃO PAULO,35,74.26045281778778,479.11308358211176,1174.0852177289564
Rua São Venceslau,Vila Guarani (z Sul),53,2,1,Apartamento,1900,2774,-23.6388128,-46.6352501,POINT (-46.6352501 -23.6388128),20,METROPOLITANA DE SÃO PAULO,35,420.2528290488893,314.146321676559,806.232832204765
Rua Doutor Cesário Mota Júnior,Vila Buarque,30,1,0,Studio e kitnet,1350,1830,-23.5456199,-46.6489416,POINT (-46.6489416 -23.5456199),20,METROPOLITANA DE SÃO PAULO,35,360.5703643732606,351.1721668068906,73.56153620238739
Avenida Deputado Emílio Carlos,Limão,49,2,1,Apartamento,1900,2359,-23.4986241,-46.6751539,POINT (-46.6751539 -23.4986241),20,METROPOLITANA DE SÃO PAULO,35,33.42333821024389,259.7610906889084,146.85651267430782
Rua Caio Prado,Consolação,24,1,0,Studio e kitnet,4300,4765,-23.547932,-46.6490342,POINT (-46.6490342 -23.547932),20,METROPOLITANA DE SÃO PAULO,35,144.35081007443188,486.4135668143953,246.61543511712196
Avenida Joaquina Ramalho,Vila Guilherme,60,3,1,Apartamento,3000,3845,-23.5125174,-46.6066366,POINT (-46.6066366 -23.5125174),20,METROPOLITANA DE SÃO PAULO,35,242.21799586262136,424.5078479847621,830.4119651735044
Rua Amandaú,Tucuruvi,35,2,0,Apartamento,2500,2976,-23.4891168,-46.6081076,POINT (-46.6081076 -23.4891168),20,METROPOLITANA DE SÃO PAULO,35,139.46286817395432,861.3734600181914,923.3371978277348
Rua Cardoso de Almeida,Perdizes,33,1,0,Apartamento,3000,4039,-23.5519203,-46.6758944,POINT (-46.6758944 -23.5519203),20,METROPOLITANA DE SÃO PAULO,35,302.8749861565566,284.5044164691689,377.75569659081987
Rua Leandro Dupré,Vila Clementino,15,1,0,Studio e kitnet,1000,1038,-23.5967275,-46.6465525,POINT (-46.6465525 -23.5967275),20,METROPOLITANA DE SÃO PAULO,35,267.23448340559975,65.97977619474392,299.02057819813194
Rua Leôncio da Costa Vieira,Jardim Piqueroby,41,2,0,Studio e kitnet,2900,3142,-23.5722182,-46.5290265,POINT (-46.5290265 -23.5722182),20,METROPOLITANA DE SÃO PAULO,35,48.339290941461876,617.3026947582598,1044.6115199826509
Avenida Mascote,Vila Mascote,86,2,2,Apartamento,4800,5935,-23.6466389,-46.6703112,POINT (-46.6703112 -23.6466389),20,METROPOLITANA DE SÃO PAULO,35,48.57840653519499,789.8576824766695,1583.6193662108642
Rua Bela Cintra,Consolação,51,1,1,Apartamento,4000,5189,-23.5564177,-46.6618937,POINT (-46.6618937 -23.5564177),20,METROPOLITANA DE SÃO PAULO,35,328.7736043387501,512.3511042390743,89.98792432833143
Rua Gomes de Carvalho,Vila Olímpia,30,1,1,Studio e kitnet,3000,3751,-23.5948667,-46.6896067,POINT (-46.6896067 -23.5948667),20,METROPOLITANA DE SÃO PAULO,35,692.0855627832143,918.8162661192042,226.4484225618993
Avenida Vereador José Diniz,Santo Amaro,47,1,1,Apartamento,2799,3526,-23.6272108,-46.6845584,POINT (-46.6845584 -23.6272108),20,METROPOLITANA DE SÃO PAULO,35,273.75628442257437,235.36449250704896,1603.8680599614045
Rua Batataes,Jardim Paulista,54,1,2,Apartamento,3466,6316,-23.5714135,-46.6561708,POINT (-46.6561708 -23.5714135),20,METROPOLITANA DE SÃO PAULO,35,158.00933408141316,434.58241537622007,220.20991054452
Rua Augusta,Cerqueira César,35,1,1,Apartamento,2800,3661,-23.5612183,-46.6634607,POINT (-46.6634607 -23.5612183),20,METROPOLITANA DE SÃO PAULO,35,273.9702993239768,641.8327921163606,407.31908992567276
Rua Cardoso de Almeida,Perdizes,33,1,0,Studio e kitnet,3000,4116,-23.5519203,-46.6758944,POINT (-46.6758944 -23.5519203),20,METROPOLITANA DE SÃO PAULO,35,302.8749861565566,284.5044164691689,377.75569659081987
Rua Doutor Plínio Barreto,Bela Vista,60,2,1,Apartamento,5500,6504,-23.5575749,-46.6521241,POINT (-46.6521241 -23.5575749),20,METROPOLITANA DE SÃO PAULO,35,215.074707086009,136.90898332244169,370.244547348351
Rua Azevedo Soares,Vila Gomes Cardim,82,3,1,Apartamento,3000,4040,-23.5500163,-46.5721621,POINT (-46.5721621 -23.5500163),20,METROPOLITANA DE SÃO PAULO,35,78.92184654267754,563.9773608170259,1024.35281535218
Rua Luís Correia de Melo,Vila Cruzeiro,58,2,1,Apartamento,3500,4479,-23.633037,-46.7154644,POINT (-46.7154644 -23.633037),20,METROPOLITANA DE SÃO PAULO,35,255.60732600062664,1107.706889367021,1493.4834122619627
R. Mal. Barbacena,Jardim Anália Franco,78,1,1,Apartamento,3950,5182,-23.5538315,-46.5774135,POINT (-46.5774135 -23.5538315),20,METROPOLITANA DE SÃO PAULO,35,220.19226372794265,260.5652382788064,1375.935263515682
Rua Marie Nader Calfat 270,Jardim Ampliação,32,1,0,Studio e kitnet,2370,2962,-23.628751,-46.7293431,POINT (-46.7293431 -23.628751),20,METROPOLITANA DE SÃO PAULO,35,167.75641135720304,648.6660822478386,734.8050846224725
Avenida Amador Bueno da Veiga,Penha de França,58,2,1,Apartamento,2500,3476,-23.5221576,-46.5307123,POINT (-46.5307123 -23.5221576),20,METROPOLITANA DE SÃO PAULO,35,254.90276710271414,431.9510470268761,712.5137826879712
Rua da Consolação,Consolação,65,2,0,Apartamento,2100,2831,-23.5480826,-46.6492296,POINT (-46.6492296 -23.5480826),20,METROPOLITANA DE SÃO PAULO,35,151.88584137016886,501.82034378070205,225.27915647789894
Rua Itamonte,Vila Medeiros,58,3,1,Apartamento,3800,4536,-23.490097,-46.5795333,POINT (-46.5795333 -23.490097),20,METROPOLITANA DE SÃO PAULO,35,174.67257568729914,533.9091037744324,2641.7237646538
Rua Sena Madureira,Vila Clementino,68,3,1,Apartamento,5200,6684,-23.5941596,-46.6442194,POINT (-46.6442194 -23.5941596),20,METROPOLITANA DE SÃO PAULO,35,120.37141601512114,215.61596146678534,71.9676820538708
Rua Cayowaá,Perdizes,83,3,2,Apartamento,3600,5242,-23.5469902,-46.6899356,POINT (-46.6899356 -23.5469902),20,METROPOLITANA DE SÃO PAULO,35,244.05727946860284,257.8653629078186,1088.6473793359007
Rua Engenheiro Isaac Garcêz,Rudge Ramos,184,3,2,Apartamento,3800,4626,-23.6653594,-46.5659145,POINT (-46.5659145 -23.6653594),20,METROPOLITANA DE SÃO PAULO,35,3329.8695324104597,3581.6162385555103,5236.402032371596
Rua Cayowaá,Perdizes,68,3,1,Apartamento,3000,4182,-23.5469902,-46.6899356,POINT (-46.6899356 -23.5469902),20,METROPOLITANA DE SÃO PAULO,35,244.05727946860284,257.8653629078186,1088.6473793359007
Avenida Diógenes Ribeiro de Lima,Alto da Lapa,64,2,2,Apartamento,3000,4480,-23.5354605,-46.7184678,POINT (-46.7184678 -23.5354605),20,METROPOLITANA DE SÃO PAULO,35,57.30369944065299,462.8537822067769,979.206346229645
Rua Antônio Gomes Ferreira,Sacoma,33,2,0,Apartamento,1700,2095,-23.6339516,-46.5941399,POINT (-46.5941399 -23.6339516),20,METROPOLITANA DE SÃO PAULO,35,283.06713325433236,521.3807213720211,1408.956706534632
Avenida Padres Olivetanos,Vila Esperança,73,3,1,Apartamento,2700,4093,-23.5298703,-46.5277112,POINT (-46.5277112 -23.5298703),20,METROPOLITANA DE SÃO PAULO,35,84.040135131764,302.6387981583015,394.2222619155675
Rua Gabriele D’annunzio,Campo Belo,35,1,1,Studio e kitnet,3800,4637,-23.6187554,-46.6813545,POINT (-46.6813545 -23.6187554),20,METROPOLITANA DE SÃO PAULO,35,302.9355066678145,721.1355108256647,1761.8335624942365
Rua Francisca Júlia,Santana,50,2,1,Apartamento,1900,2685,-23.4933075,-46.6288238,POINT (-46.6288238 -23.4933075),20,METROPOLITANA DE SÃO PAULO,35,151.49003779077398,433.75113751881975,414.14115420860304
Rua Bruno Cavalcanti Feder,Quinta da Paineira,50,2,1,Apartamento,1700,2321,-23.5930166,-46.5814807,POINT (-46.5814807 -23.5930166),20,METROPOLITANA DE SÃO PAULO,35,140.75550067864924,408.8232772500738,390.8333431738814
Rua Alves Guimarães,Pinheiros,25,1,0,Studio e kitnet,2500,2986,-23.5516401,-46.6811417,POINT (-46.6811417 -23.5516401),20,METROPOLITANA DE SÃO PAULO,35,105.43234776632328,448.37040676263626,742.9829290102629
Rua Elza Guimarães,Vila Amália (zona Norte),48,2,0,Apartamento,1100,1542,-23.4670391,-46.6520604,POINT (-46.6520604 -23.4670391),20,METROPOLITANA DE SÃO PAULO,35,42.222557725431834,413.6823557273566,909.7828817180883
Rua Franklin Magalhães,Vila Santa Catarina,15,1,0,Casa,750,846,-23.6524084,-46.657036,POINT (-46.657036 -23.6524084),20,METROPOLITANA DE SÃO PAULO,35,163.06688420601205,477.18434274592926,1167.465438634494
Rua Eugênia Sá Vitale,Vila Santa Luzia,53,2,1,Apartamento,2200,2968,-23.6578984,-46.6063683,POINT (-46.6063683 -23.6578984),20,METROPOLITANA DE SÃO PAULO,35,617.7660592045612,814.8774499115209,2189.0356588616605
Rua Doutor Gabriel de Resende Filho,Chora Menino,25,2,0,Apartamento,1400,1614,-23.571935,-46.563467,POINT (-46.563467 -23.571935),20,METROPOLITANA DE SÃO PAULO,35,62.708460934028665,503.8970576128322,1241.4029536147898
Rua Correia Dias,Paraíso,23,1,0,Studio e kitnet,4000,4061,-23.5766041,-46.6400087,POINT (-46.6400087 -23.5766041),20,METROPOLITANA DE SÃO PAULO,35,19.48207273466636,283.85027670946647,592.2513442115543
Rua Vergueiro,Vila Firmiano Pinto,63,3,1,Apartamento,1500,2732,-23.6058329,-46.6143385,POINT (-46.6143385 -23.6058329),20,METROPOLITANA DE SÃO PAULO,35,233.5301011337291,774.0042016832172,842.5736312362891
Rua Barata Ribeiro,Bela Vista,16,1,0,Studio e kitnet,3700,4459,-23.5558529,-46.6505512,POINT (-46.6505512 -23.5558529),20,METROPOLITANA DE SÃO PAULO,35,134.90821982307858,277.6031317122654,265.23979625211376
Rua Doutor Teodoro Baima,República,20,1,0,Apartamento,2500,2912,-23.5469392,-46.6461959,POINT (-46.6461959 -23.5469392),20,METROPOLITANA DE SÃO PAULO,35,175.2818408967573,296.69004063371057,166.40114159508397
Rua Nicolau Barreto,Vila Cordeiro,50,1,1,Apartamento,5400,6258,-23.6174354,-46.6954702,POINT (-46.6954702 -23.6174354),20,METROPOLITANA DE SÃO PAULO,35,288.2774129091946,271.53139089446495,577.8438194625824
Rua Malie Brenner,Vila Dom Pedro Ii,32,1,0,Apartamento,1600,1871,-23.4902714,-46.6026735,POINT (-46.6026735 -23.4902714),20,METROPOLITANA DE SÃO PAULO,35,278.21673838978535,377.8202320698544,1010.083477582211
Rua Vicente Ferreira Leite,Vila Siqueira (zona Norte),47,2,1,Apartamento,1650,2187,-23.4984765,-46.6804275,POINT (-46.6804275 -23.4984765),20,METROPOLITANA DE SÃO PAULO,35,30.83611843249968,284.416281086989,510.3036799774412
Rua Jaguarete,Casa Verde,54,2,1,Apartamento,4200,4954,-23.5108528,-46.6586068,POINT (-46.6586068 -23.5108528),20,METROPOLITANA DE SÃO PAULO,35,78.5268986467727,579.6483370076634,1229.1255100350174
Rua Batataes,Jardim Paulista,34,1,1,Studio e kitnet,4000,5288,-23.5714135,-46.6561708,POINT (-46.6561708 -23.5714135),20,METROPOLITANA DE SÃO PAULO,35,158.00933408141316,434.58241537622007,220.20991054452
Rua Fiandeiras,Vila Olímpia,42,1,1,Apartamento,2300,4056,-23.5969974,-46.6764655,POINT (-46.6764655 -23.5969974),20,METROPOLITANA DE SÃO PAULO,35,230.54217809120385,741.3767183576022,803.5357061104563
Rua Conselheiro Brotero,Santa Cecília,30,1,1,Apartamento,3300,4132,-23.5349412,-46.6601529,POINT (-46.6601529 -23.5349412),20,METROPOLITANA DE SÃO PAULO,35,153.6324157021808,513.6697739326386,479.39279363917046
Rua Santa Justina,Vila Olímpia,33,1,1,Studio e kitnet,3150,4658,-23.5961613,-46.6797935,POINT (-46.6797935 -23.5961613),20,METROPOLITANA DE SÃO PAULO,35,93.02474082329366,901.5457700258905,663.3668857220904
Rua Kansas,Brooklin Paulista,84,2,2,Apartamento,7990,9832,-23.603672,-46.6848499,POINT (-46.6848499 -23.603672),20,METROPOLITANA DE SÃO PAULO,35,252.21609533201027,944.5082679295165,922.6155905541847
Rua Halionore,Vila Prudente,90,2,2,Casa,2715,2830,-23.582472,-46.5841716,POINT (-46.5841716 -23.582472),20,METROPOLITANA DE SÃO PAULO,35,137.10596128536562,139.9639033348038,82.83414296634157
Avenida Doutor Cardoso de Melo,Vila Olímpia,43,1,1,Studio e kitnet,3500,4774,-23.6025398,-46.6759245,POINT (-46.6759245 -23.6025398),20,METROPOLITANA DE SÃO PAULO,35,66.28371204957473,290.7307848674191,1268.8638576789187
Rua Barata Ribeiro,Bela Vista,20,1,0,Apartamento,4000,4754,-23.5558529,-46.6505512,POINT (-46.6505512 -23.5558529),20,METROPOLITANA DE SÃO PAULO,35,134.90821982307858,277.6031317122654,265.23979625211376
Rua Carvalho de Freitas,Vila Andrade,50,2,1,Apartamento,2600,3410,-23.6307193,-46.7403137,POINT (-46.7403137 -23.6307193),20,METROPOLITANA DE SÃO PAULO,35,189.82954955871955,499.43566904011135,268.1829938793575
Rua Girassol,Vila Madalena,25,1,0,Apartamento,2770,3508,-23.5495771,-46.69301901947137,POINT (-46.69301901947137 -23.5495771),20,METROPOLITANA DE SÃO PAULO,35,118.05944786626667,473.30886026381575,857.4555799604597
Avenida dos Carinás,Indianópolis,26,1,0,Apartamento,3500,4235,-23.6132033,-46.6668685,POINT (-46.6668685 -23.6132033),20,METROPOLITANA DE SÃO PAULO,35,158.9865708423522,680.7201055376179,324.8784297498178
Avenida Sapopemba,Jardim Planalto,35,1,0,Apartamento,1050,1261,-23.6108277,-46.5041976,POINT (-46.5041976 -23.6108277),20,METROPOLITANA DE SÃO PAULO,35,269.77205429893877,289.2277646506663,726.0231710080427
Avenida Vila Ema,Vila Ema,32,1,0,Studio e kitnet,1300,1652,-23.580112,-46.569454,POINT (-46.569454 -23.580112),20,METROPOLITANA DE SÃO PAULO,35,46.96548771219523,421.89054352714874,1453.382642029624
Rua Mundo Novo,Vila Anglo Brasileira,185,2,3,Casa,4579,4888,-23.5389602,-46.6949292,POINT (-46.6949292 -23.5389602),20,METROPOLITANA DE SÃO PAULO,35,307.77661531130695,601.2436571558778,773.4872297359442
Rua Joaquim Afonso de Souza,Vila Celeste,49,1,1,Apartamento,1800,2303,-23.4828324,-46.6624231,POINT (-46.6624231 -23.4828324),20,METROPOLITANA DE SÃO PAULO,35,267.0010089221366,580.879796400816,1087.9455939484787
Rua Barata Ribeiro,Bela Vista,18,1,0,Studio e kitnet,4000,4754,-23.5558529,-46.6505512,POINT (-46.6505512 -23.5558529),20,METROPOLITANA DE SÃO PAULO,35,134.90821982307858,277.6031317122654,265.23979625211376
Rua Domingos Paiva,Brás,39,1,0,Apartamento,2330,2950,-23.5486945,-46.6144899,POINT (-46.6144899 -23.5486945),20,METROPOLITANA DE SÃO PAULO,35,137.01288424751877,1072.951397745931,641.2592645560193
Alameda Iraé,Indianópolis,25,1,0,Studio e kitnet,3690,4373,-23.6047168,-46.6616965,POINT (-46.6616965 -23.6047168),20,METROPOLITANA DE SÃO PAULO,35,284.7478125236896,353.1839513523921,802.8455025276251
Rua Nossa Senhora de Fátima,Santa Paula,71,2,2,Apartamento,3800,4536,-23.6220145,-46.5657556,POINT (-46.5657556 -23.6220145),20,METROPOLITANA DE SÃO PAULO,35,1761.787015929026,2110.075291063515,1926.8389774826792
Rua Baía Grande,Vila Bela,40,1,1,Casa,1100,1177,-23.6034001,-46.5705276,POINT (-46.5705276 -23.6034001),20,METROPOLITANA DE SÃO PAULO,35,340.8243939555945,826.1182817662935,1790.479309873766
Rua Antônio Píres,Vila Albertina,72,2,1,Apartamento,3082,3801,-23.4567273,-46.6137832,POINT (-46.6137832 -23.4567273),20,METROPOLITANA DE SÃO PAULO,35,79.7808344563733,917.6598820099806,973.329074734337
Rua São João da Bocaina,Chácara Mafalda,75,2,1,Casa,1800,2076,-23.5741924,-46.5497622,POINT (-46.5497622 -23.5741924),20,METROPOLITANA DE SÃO PAULO,35,115.31254822964911,851.5755738116726,532.2700936324551
Rua João Biancalana,Paulicéia,62,3,1,Apartamento,1800,2319,-23.6707539,-46.5975444,POINT (-46.5975444 -23.6707539),20,METROPOLITANA DE SÃO PAULO,35,2111.1379680349933,2269.596367944724,3872.497499117583
Rua Vicente Pereira de Assunção,Vila Constança,65,3,1,Apartamento,1872,2621,-23.6666678,-46.6717795,POINT (-46.6717795 -23.6666678),20,METROPOLITANA DE SÃO PAULO,35,219.55359816331352,545.18612615862,1130.7424356897575
Rua Itanhaém,Vila Prudente,50,2,1,Apartamento,2100,2915,-23.5821502,-46.575926,POINT (-46.575926 -23.5821502),20,METROPOLITANA DE SÃO PAULO,35,275.3740072157324,688.1444428443449,777.8242630143961
Rua Capote Valente,Pinheiros,83,2,1,Apartamento,3200,4131,-23.549881,-46.6809439,POINT (-46.6809439 -23.549881),20,METROPOLITANA DE SÃO PAULO,35,67.06797162983976,626.5790777332336,799.2973200454629
"Indianópolis, São Paulo - Sp, 04524-020, Brasil",Indianópolis,24,1,1,Apartamento,3200,4317,-23.600067,-46.659,POINT (-46.659 -23.600067),20,METROPOLITANA DE SÃO PAULO,35,151.0049236891018,256.34574891987563,743.5206403168155
Rua Ministro Godói,Perdizes,110,3,0,Apartamento,5400,6480,-23.5383278,-46.6723021,POINT (-46.6723021 -23.5383278),20,METROPOLITANA DE SÃO PAULO,35,298.17288649348154,657.0864196454205,100.46355893707425
Rua Xingu,Vila Valparaíso,60,3,1,Apartamento,1700,2291,-23.6714605,-46.5514111,POINT (-46.5514111 -23.6714605),20,METROPOLITANA DE SÃO PAULO,35,3641.592026902695,5171.39069213972,6504.2119413469745
Rua Galeno de Castro,Jurubatuba,34,1,0,Apartamento,1800,2144,-23.6663597,-46.7050711,POINT (-46.7050711 -23.6663597),20,METROPOLITANA DE SÃO PAULO,35,628.3562232529158,976.5267377366175,1356.9089104306129
Rua Joaquim Afonso de Souza,Casa Verde Alta,26,1,0,Apartamento,920,1022,-23.4828324,-46.6624231,POINT (-46.6624231 -23.4828324),20,METROPOLITANA DE SÃO PAULO,35,267.0010089221366,580.879796400816,1087.9455939484787
Rua Hercília,Vila Matilde,69,2,2,Casa,2500,2731,-23.5395069,-46.5268124,POINT (-46.5268124 -23.5395069),20,METROPOLITANA DE SÃO PAULO,35,173.51448650732493,175.28254726901753,1018.5134145894101
Rua Leopoldo Silingardi,Jardim Las Vegas,43,2,1,Apartamento,1800,2387,-23.4300094,-46.5447607,POINT (-46.5447607 -23.4300094),20,METROPOLITANA DE SÃO PAULO,35,2385.487147616378,2611.612163725997,4070.509859695594
Rua República do Togo,Jardim Peri Peri,70,2,1,Casa,2633,2887,-23.585207,-46.7346235,POINT (-46.7346235 -23.585207),20,METROPOLITANA DE SÃO PAULO,35,145.1379924456469,274.64293296941963,304.5885910454983
Rua Barata Ribeiro,Bela Vista,22,1,0,Studio e kitnet,4000,4754,-23.5558529,-46.6505512,POINT (-46.6505512 -23.5558529),20,METROPOLITANA DE SÃO PAULO,35,134.90821982307858,277.6031317122654,265.23979625211376
Rua Heloísa Camargo,Vila Esperança,45,1,0,Casa,1250,1371,-23.5262125,-46.5278697,POINT (-46.5278697 -23.5262125),20,METROPOLITANA DE SÃO PAULO,35,128.343725561959,102.79450928789008,437.08363423118584
Rua Galeno de Castro,Jurubatuba,35,2,0,Apartamento,2200,2520,-23.6663597,-46.7050711,POINT (-46.7050711 -23.6663597),20,METROPOLITANA DE SÃO PAULO,35,628.3562232529158,976.5267377366175,1356.9089104306129
Rua Alves Guimarães,Pinheiros,38,1,1,Apartamento,4300,5485,-23.5516401,-46.6811417,POINT (-46.6811417 -23.5516401),20,METROPOLITANA DE SÃO PAULO,35,105.43234776632328,448.37040676263626,742.9829290102629
Rua Doutor Gabriel dos Santos,Santa Cecilia,33,1,1,Apartamento,1600,2536,-23.5353346,-46.6592958,POINT (-46.6592958 -23.5353346),20,METROPOLITANA DE SÃO PAULO,35,182.14966061993667,509.68611250764417,533.3656800108431
Avenida Guarulhos,Vila Venditti,50,2,1,Apartamento,1450,1936,-23.4881423,-46.5453574,POINT (-46.5453574 -23.4881423),20,METROPOLITANA DE SÃO PAULO,35,1920.239938260276,1840.173746006256,2172.0487345378865
Rua Gilberto Sabino,Pinheiros,73,1,2,Apartamento,9500,11210,-23.5651056,-46.701042,POINT (-46.701042 -23.5651056),20,METROPOLITANA DE SÃO PAULO,35,213.86240414237602,448.19894431709474,824.9205843095331
Rua Doutor Penaforte Mendes,Bela Vista,29,1,1,Apartamento,2430,3438,-23.5547955,-46.6516181,POINT (-46.6516181 -23.5547955),20,METROPOLITANA DE SÃO PAULO,35,62.1015084476852,394.24435240496877,106.82122319175215
Avenida Roque Petroni Júnior,Jardim das Acácias,22,1,0,Studio e kitnet,3800,4521,-23.6201494,-46.6999659,POINT (-46.6999659 -23.6201494),20,METROPOLITANA DE SÃO PAULO,35,625.8969362622194,473.6426155887334,179.70607063950732
Rua do Lavapés,Cambuci,26,1,0,Apartamento,1350,1616,-23.5622441,-46.6216806,POINT (-46.6216806 -23.5622441),20,METROPOLITANA DE SÃO PAULO,35,74.26045281778778,479.11308358211176,1174.0852177289564
Rua Delegado Moraes Novaes,Vila Andrade,72,2,2,Apartamento,3000,3919,-23.6342262,-46.7350249,POINT (-46.7350249 -23.6342262),20,METROPOLITANA DE SÃO PAULO,35,41.36395786829355,551.292141888046,324.0515017370983
Rua Intendência,Brás,53,2,0,Apartamento,1550,2010,-23.5344382,-46.5953095,POINT (-46.5953095 -23.5344382),20,METROPOLITANA DE SÃO PAULO,35,236.25122919037494,289.86532147360197,1331.7585798834996
Rua Barão de Iguape,Liberdade,50,2,1,Apartamento,2086,2601,-23.5582387,-46.6371062,POINT (-46.6371062 -23.5582387),20,METROPOLITANA DE SÃO PAULO,35,116.00610636730427,233.38120680819236,363.35208799275597
Rua Marechal Deodoro,Santa Paula,69,2,2,Apartamento,3550,4268,-23.6174079,-46.5627495,POINT (-46.5627495 -23.6174079),20,METROPOLITANA DE SÃO PAULO,35,1220.3626318213865,1573.8916778963246,2274.091964640594
Rua Riskallah Jorge,Centro,34,1,0,Studio e kitnet,1040,1420,-23.5415578,-46.6353304,POINT (-46.6353304 -23.5415578),20,METROPOLITANA DE SÃO PAULO,35,229.19714645795858,633.1844937479071,433.8267100704887
Rua Marie Nader Calfat,Jardim Ampliação,56,2,1,Apartamento,2150,2788,-23.6276937,-46.7297786,POINT (-46.7297786 -23.6276937),20,METROPOLITANA DE SÃO PAULO,35,93.16444651517132,626.804552799704,751.7675609837612
Rua George Smith,Lapa,55,2,1,Apartamento,3200,3932,-23.5178689,-46.7042944,POINT (-46.7042944 -23.5178689),20,METROPOLITANA DE SÃO PAULO,35,133.70037868337985,600.8356257497184,518.3801954241026
Rua Henrique Casela,Jardim América da Penha,46,2,1,Apartamento,1500,1908,-23.5193906,-46.5524964,POINT (-46.5524964 -23.5193906),20,METROPOLITANA DE SÃO PAULO,35,272.10786489585337,819.9930741136446,469.2599656130651
Rua Soldado Teodoro Francisco Ribeiro,Parque Novo Mundo,65,3,1,Apartamento,2000,2748,-23.5162077,-46.5657968,POINT (-46.5657968 -23.5162077),20,METROPOLITANA DE SÃO PAULO,35,299.4458383153346,474.4854637325312,1044.9526042554235
Rua Doutor Clemente Jobim,Jardim da Glória,27,1,0,Studio e kitnet,1902,2365,-23.5819068,-46.6164334,POINT (-46.6164334 -23.5819068),20,METROPOLITANA DE SÃO PAULO,35,269.8433859136386,482.3672782083055,684.0300151221563
Rua Manoel Rodrigues da Costa,Vila Guedes,80,2,2,Casa,2000,2085,-23.4868508,-46.7428646,POINT (-46.7428646 -23.4868508),20,METROPOLITANA DE SÃO PAULO,35,253.96661255124135,523.6051861195901,278.31813180864583
Rua Alexandrino da Silveira Bueno,Cambuci,40,2,0,Apartamento,1600,2007,-23.5658871,-46.6155755,POINT (-46.6155755 -23.5658871),20,METROPOLITANA DE SÃO PAULO,35,118.30442838007448,640.4717585197203,1597.3210651454028
Avenida Salgado Filho,Centro,68,3,1,Apartamento,2100,2750,-23.465254,-46.530225,POINT (-46.530225 -23.465254),20,METROPOLITANA DE SÃO PAULO,35,3538.6658404144623,3575.7538863730692,3725.866936773533
Rua Otto de Alencar,Liberdade,44,2,1,Apartamento,1700,2266,-23.5590367,-46.6247829,POINT (-46.6247829 -23.5590367),20,METROPOLITANA DE SÃO PAULO,35,137.84018837176134,301.97685138733857,867.7120368152237
Rua Jaguaré,Jaguaré,58,2,2,Apartamento,2150,2869,-23.5528211,-46.745477,POINT (-46.745477 -23.5528211),20,METROPOLITANA DE SÃO PAULO,35,115.52161017817359,1100.527775460587,875.5186069006297
Rua Fernandes Moreira,Chácara Santo Antônio (zona Sul),62,2,1,Apartamento,9500,10680,-23.6310663,-46.704294,POINT (-46.704294 -23.6310663),20,METROPOLITANA DE SÃO PAULO,35,173.76842044085032,714.4394580109622,672.7165965121045
Rua Peixoto Gomide,Jardim Paulista,45,1,0,Studio e kitnet,1600,2044,-23.5608957,-46.6570937,POINT (-46.6570937 -23.5608957),20,METROPOLITANA DE SÃO PAULO,35,353.0175160337507,211.062827664192,134.21181415518848
Rua Ilansa,Vila Prudente,79,3,2,Apartamento,3650,4888,-23.5791093,-46.5883235,POINT (-46.5883235 -23.5791093),20,METROPOLITANA DE SÃO PAULO,35,143.7312773422479,663.82534482311,369.16337947023914
Rua André Saraíva,Vila Sonia,30,1,0,Casa,1150,1199,-23.5920632,-46.7306162,POINT (-46.7306162 -23.5920632),20,METROPOLITANA DE SÃO PAULO,35,118.42926075663355,629.996786627999,571.0096351932787
Rua Luís Gama,Cambuci,29,1,0,Studio e kitnet,1550,1910,-23.567857,-46.6114812,POINT (-46.6114812 -23.567857),20,METROPOLITANA DE SÃO PAULO,35,62.83630622763825,294.3804704032061,1290.7618158985824
Rua Ibitirama,Vila Prudente,55,2,1,Apartamento,2747,3361,-23.5823178,-46.5853328,POINT (-46.5853328 -23.5823178),20,METROPOLITANA DE SÃO PAULO,35,213.6552255799273,257.11064621323015,185.9924652290333
Rua Cardoso de Almeida,Perdizes,106,3,1,Apartamento,3276,4918,-23.5519203,-46.6758944,POINT (-46.6758944 -23.5519203),20,METROPOLITANA DE SÃO PAULO,35,302.8749861565566,284.5044164691689,377.75569659081987
Rua Aquiles Jovane,Jardim Celeste,48,2,1,Apartamento,1400,2017,-23.6574223,-46.6112342,POINT (-46.6112342 -23.6574223),20,METROPOLITANA DE SÃO PAULO,35,236.53825172664023,316.07112745026296,1899.1851694828279
Rua Massaranduba,Vila Monte Alegre,38,1,1,Apartamento,2000,2685,-23.6251583,-46.6388264,POINT (-46.6388264 -23.6251583),20,METROPOLITANA DE SÃO PAULO,35,133.8907990745151,286.76151267847075,1063.8608325891864
Rua Agostinho Correia,Vila Regina,50,2,1,Apartamento,1300,1650,-23.4786859,-46.7083472,POINT (-46.7083472 -23.4786859),20,METROPOLITANA DE SÃO PAULO,35,42.747509614715575,359.9215536138591,790.883935062117
Rua Itararé,Bela Vista,30,2,0,Apartamento,1643,1898,-23.5551578,-46.6544564,POINT (-46.6544564 -23.5551578),20,METROPOLITANA DE SÃO PAULO,35,85.6912567782691,268.48929699520676,225.59981295528596
Rua Alves Guimarães,Pinheiros,43,1,1,Apartamento,3900,4865,-23.5516401,-46.6811417,POINT (-46.6811417 -23.5516401),20,METROPOLITANA DE SÃO PAULO,35,105.43234776632328,448.37040676263626,742.9829290102629
Rua Helena,Vila Olímpia,126,3,3,Apartamento,15000,17410,-23.5931509,-46.6860701,POINT (-46.6860701 -23.5931509),20,METROPOLITANA DE SÃO PAULO,35,337.3058816936702,613.6005555031486,218.61188185453395
Avenida Cangaíba,Cangaíba,39,2,1,Apartamento,1200,1482,-23.5107548,-46.5405895,POINT (-46.5405895 -23.5107548),20,METROPOLITANA DE SÃO PAULO,35,264.7849937275913,213.1492850786688,1645.5751928112884
Rua João de Godói Moreira,Socorro,56,1,0,Casa,1650,1720,-23.6693083,-46.7203051,POINT (-46.7203051 -23.6693083),20,METROPOLITANA DE SÃO PAULO,35,576.8946526719552,419.6919327439765,1342.2921782126894
Rua Pascal,Campo Belo,35,1,1,Studio e kitnet,3500,4440,-23.6163611,-46.6772909,POINT (-46.6772909 -23.6163611),20,METROPOLITANA DE SÃO PAULO,35,112.23848587290072,1184.3588671414757,1269.6215898064174
Rua Maestro Elias Lobo,Jardim Paulista,78,2,0,Apartamento,4900,5696,-23.5723018,-46.6632378,POINT (-46.6632378 -23.5723018),20,METROPOLITANA DE SÃO PAULO,35,321.9898369435032,691.2673150723006,285.6423353793179
Praça Alberto Lion,Cambuci,29,1,0,Apartamento,1333,1704,-23.562555,-46.61134046799562,POINT (-46.61134046799562 -23.562555),20,METROPOLITANA DE SÃO PAULO,35,419.1972385668364,881.5951692989019,1623.4467085449214
Rua Montojó,Quinta da Paineira,52,2,1,Apartamento,1250,1914,-23.5923217,-46.5811965,POINT (-46.5811965 -23.5923217),20,METROPOLITANA DE SÃO PAULO,35,128.10004876104546,327.5974931320474,450.30364031162696
Alameda Iraé,Indianópolis,24,1,0,Studio e kitnet,3300,4017,-23.6047168,-46.6616965,POINT (-46.6616965 -23.6047168),20,METROPOLITANA DE SÃO PAULO,35,284.7478125236896,353.1839513523921,802.8455025276251
Rua Guaicurus,Água Branca,29,1,0,Apartamento,2000,2327,-23.5206245,-46.7009725,POINT (-46.7009725 -23.5206245),20,METROPOLITANA DE SÃO PAULO,35,92.14756318540874,207.2807817621302,73.65028166266849
Rua Acaraú,Bela Vista,33,1,0,Apartamento,2150,2681,-23.5538741,-46.6488892,POINT (-46.6488892 -23.5538741),20,METROPOLITANA DE SÃO PAULO,35,58.65507116427093,539.2742865419568,368.8917580508989
Rua Coronel Luís Barroso,Santo Amaro,33,1,1,Studio e kitnet,2800,3396,-23.6471119,-46.7049816,POINT (-46.7049816 -23.6471119),20,METROPOLITANA DE SÃO PAULO,35,39.497560480242385,269.9313720442208,355.59539334225934
Rua Paim,Bela Vista,36,1,1,Apartamento,2800,3445,-23.5548176,-46.6490388,POINT (-46.6490388 -23.5548176),20,METROPOLITANA DE SÃO PAULO,35,64.41134365722449,438.6323934430468,356.9049809416003
Rua Catumbi,Catumbi,48,2,1,Apartamento,1900,2474,-23.534239,-46.600548,POINT (-46.600548 -23.534239),20,METROPOLITANA DE SÃO PAULO,35,162.8993519125995,398.6161221105641,1383.0097751529577
Rua Padre Mariano Ronchi,Vila Pereira Cerca,46,2,1,Apartamento,1150,2044,-23.4929871,-46.7109811,POINT (-46.7109811 -23.4929871),20,METROPOLITANA DE SÃO PAULO,35,287.5056463328041,293.53116517078644,1298.5566891585584
Rua Fernando Dondon,Tatuapé,30,1,0,Studio e kitnet,1550,1662,-23.5464234,-46.5620488,POINT (-46.5620488 -23.5464234),20,METROPOLITANA DE SÃO PAULO,35,38.49687187546565,332.4758214686735,1495.6839582021557
Rua Doutor Augusto de Miranda,Vila Pompéia,42,1,1,Studio e kitnet,4750,5959,-23.5326085,-46.6912451,POINT (-46.6912451 -23.5326085),20,METROPOLITANA DE SÃO PAULO,35,158.42407628511194,331.343355226864,365.8984295922076
Avenida Doutor Hugo Beolchi,Vila Guarani (z Sul),26,1,0,Apartamento,2700,3093,-23.6343599,-46.6414418,POINT (-46.6414418 -23.6343599),20,METROPOLITANA DE SÃO PAULO,35,202.42762950523178,386.81476888228366,259.82898496519266
Avenida Nove de Julho,Bela Vista,30,1,0,Studio e kitnet,2000,2342,-23.5606299,-46.6551101,POINT (-46.6551101 -23.5606299),20,METROPOLITANA DE SÃO PAULO,35,451.72575867574346,134.36912892510114,110.90366248546162
Rua Gabriele D'annunzio,Campo Belo,37,1,1,Studio e kitnet,3500,4276,-23.6187554,-46.6813545,POINT (-46.6813545 -23.6187554),20,METROPOLITANA DE SÃO PAULO,35,302.9355066678145,721.1355108256647,1761.8335624942365
Rua Frei Caneca,Consolação,40,1,0,Apartamento,2527,3065,-23.5531867,-46.6521291,POINT (-46.6521291 -23.5531867),20,METROPOLITANA DE SÃO PAULO,35,191.6631248676212,541.7808393187925,122.86044416448817
Rua Quararibéia,Vila Isa,61,2,1,Apartamento,3000,3696,-23.6702727,-46.6903764,POINT (-46.6903764 -23.6702727),20,METROPOLITANA DE SÃO PAULO,35,309.37799796189177,673.3906525691373,842.030084240096
Rua Jurupari,Jardim Oriental,35,1,0,Casa,980,1097,-23.6447253,-46.6493492,POINT (-46.6493492 -23.6447253),20,METROPOLITANA DE SÃO PAULO,35,71.26130543816751,677.5807280687867,821.4853383407236
Avenida Jabaquara,Mirandópolis,26,1,0,Studio e kitnet,2188,2786,-23.6152422,-46.6385731,POINT (-46.6385731 -23.6152422),20,METROPOLITANA DE SÃO PAULO,35,74.42107436800245,754.0324158135543,1305.9757739327808
Rua Ciro Costa,Perdizes,32,1,1,Studio e kitnet,2750,3607,-23.531786,-46.6750583,POINT (-46.6750583 -23.531786),20,METROPOLITANA DE SÃO PAULO,35,143.27591630778412,173.9575954046948,188.26803535366605
Rua Conselheiro Ramalho,Bela Vista,32,1,0,Studio e kitnet,1700,2176,-23.5577177,-46.6443949,POINT (-46.6443949 -23.5577177),20,METROPOLITANA DE SÃO PAULO,35,175.5178920208365,257.9753206462655,322.51064918412527
Rua Saint Hilaire,Jardim Paulista,32,1,1,Studio e kitnet,2100,2879,-23.571067,-46.6539054,POINT (-46.6539054 -23.571067),20,METROPOLITANA DE SÃO PAULO,35,320.84279046141495,279.4727172012135,296.3778034951621
Rua Barão de Tatuí,Vila Buarque,30,1,1,Studio e kitnet,1262,1896,-23.536379,-46.6528834,POINT (-46.6528834 -23.536379),20,METROPOLITANA DE SÃO PAULO,35,229.82593347598828,254.9329079878162,757.2308839307811
Rua Cristiano Viana,Cerqueira César,73,2,1,Apartamento,6000,7231,-23.5580046,-46.6780258,POINT (-46.6780258 -23.5580046),20,METROPOLITANA DE SÃO PAULO,35,160.47425820230688,325.1142951351594,441.50356739342124
Rua Alves Guimarães,Pinheiros,25,1,0,Apartamento,3100,3650,-23.5516401,-46.6811417,POINT (-46.6811417 -23.5516401),20,METROPOLITANA DE SÃO PAULO,35,105.43234776632328,448.37040676263626,742.9829290102629
Rua Valson Lopes,Vila Butantã,68,3,1,Apartamento,2500,3305,-23.5687935,-46.7436464,POINT (-46.7436464 -23.5687935),20,METROPOLITANA DE SÃO PAULO,35,115.20155905480773,321.2092842669636,113.12662906979507
Rua Bucuituba,Vila Margarida,34,1,0,Apartamento,1100,1216,-23.5769113,-46.5516119,POINT (-46.5516119 -23.5769113),20,METROPOLITANA DE SÃO PAULO,35,169.93340103407414,717.1524550797136,880.0186867498636
Rua Márcio Mazzei,Vila Nova Mazzei,53,2,1,Apartamento,1800,2369,-23.460931,-46.5952773,POINT (-46.5952773 -23.460931),20,METROPOLITANA DE SÃO PAULO,35,200.2441092579165,996.6308747921611,1239.628790285055
Avenida Francisco Matarazzo,Barra Funda,30,1,0,Apartamento,1600,2131,-23.5266918,-46.6731084,POINT (-46.6731084 -23.5266918),20,METROPOLITANA DE SÃO PAULO,35,154.065084782222,574.0363446045659,111.29558097400225
Rua do Valo Velho,Vila Ede,85,2,1,Casa,1350,1407,-23.6907839,-46.7986161,POINT (-46.7986161 -23.6907839),20,METROPOLITANA DE SÃO PAULO,35,163.75720461032526,507.44169930450545,649.3427465942457
Rua Fradique Coutinho,Pinheiros,82,2,0,Casa,4000,4614,-23.562644,-46.6868335,POINT (-46.6868335 -23.562644),20,METROPOLITANA DE SÃO PAULO,35,318.7523898695206,350.7842619915412,117.75577999024566
Rua Guaicurus,Água Branca,28,1,0,Studio e kitnet,2400,2793,-23.5206245,-46.7009725,POINT (-46.7009725 -23.5206245),20,METROPOLITANA DE SÃO PAULO,35,92.14756318540874,207.2807817621302,73.65028166266849
Rua Cantori,Vila Andrade,41,2,0,Apartamento,1300,1750,-23.632794,-46.7407487,POINT (-46.7407487 -23.632794),20,METROPOLITANA DE SÃO PAULO,35,57.97248663977196,647.5028866344925,332.8508751756351
Rua Coronel Deraldo Jordão,Vila Firmiano Pinto,90,2,2,Apartamento,5200,6574,-23.6002693,-46.6193007,POINT (-46.6193007 -23.6002693),20,METROPOLITANA DE SÃO PAULO,35,123.12969110428797,492.68809930290826,1297.7334496388123
Avenida Sapopemba,Sapopemba,56,2,1,Apartamento,2200,2842,-23.5992902,-46.5151113,POINT (-46.5151113 -23.5992902),20,METROPOLITANA DE SÃO PAULO,35,115.66690538951424,398.7598239773995,313.87033330419166
Rua Gaspar Lourenço,Vila Mariana,50,2,0,Apartamento,3600,4289,-23.5825623,-46.63079,POINT (-46.63079 -23.5825623),20,METROPOLITANA DE SÃO PAULO,35,39.96080855324562,381.77543039413206,738.8502724047593
Avenida Celso Garcia,Belenzinho,44,2,1,Apartamento,1850,2321,-23.5295076,-46.5535712,POINT (-46.5535712 -23.5295076),20,METROPOLITANA DE SÃO PAULO,35,367.7513322141577,358.75689511494136,661.8107955423546
Rua Cavour 399 Apto 124 B/a,Vila Prudente,75,3,2,Apartamento,2900,3648,-23.582849,-46.579819,POINT (-46.579819 -23.582849),20,METROPOLITANA DE SÃO PAULO,35,169.69042285258416,297.34566151603804,391.7651789373455
Rua Engenheiro Bianor,Butantã,45,2,1,Apartamento,3850,4723,-23.5713457,-46.7078925,POINT (-46.7078925 -23.5713457),20,METROPOLITANA DE SÃO PAULO,35,56.73917084063193,327.54845913049985,971.1689775529187
Rua Alves Guimarães,Pinheiros,33,1,0,Apartamento,3100,3677,-23.5516401,-46.6811417,POINT (-46.6811417 -23.5516401),20,METROPOLITANA DE SÃO PAULO,35,105.43234776632328,448.37040676263626,742.9829290102629
Rua Dona Vitu Giorgi,Jardim Leonor,55,2,1,Apartamento,1600,2162,-23.6057798,-46.7252443,POINT (-46.7252443 -23.6057798),20,METROPOLITANA DE SÃO PAULO,35,57.501157487019924,501.3800580005232,345.2985070044628
Rua Farjalla Koraicho,Jabaquara,91,2,1,Casa,2700,2814,-23.6426728,-46.643604,POINT (-46.643604 -23.6426728),20,METROPOLITANA DE SÃO PAULO,35,156.0983425793999,119.70898812908781,711.0926185227138
Rua Ouvidor Portugal,Vila Monumento,35,1,1,Apartamento,1800,2332,-23.57466,-46.6116588,POINT (-46.6116588 -23.57466),20,METROPOLITANA DE SÃO PAULO,35,125.78185833102177,459.68968174250125,549.7792216503999
Rua Doutor Nicolino Morena,Vila Constança,60,2,1,Apartamento,1350,1875,-23.4725257,-46.5820889,POINT (-46.5820889 -23.4725257),20,METROPOLITANA DE SÃO PAULO,35,43.09199723728445,295.94695971353485,1677.3902506674783
"Rua Sete Barras, 268",Nossa Senhora do Ó,65,3,1,Apartamento,2250,2854,-23.4988042,-46.7052212,POINT (-46.7052212 -23.4988042),20,METROPOLITANA DE SÃO PAULO,35,223.31454535683946,710.2120287904525,668.0489863058727
Avenida Jabaquara,Mirandópolis,27,1,0,Studio e kitnet,2800,3363,-23.6152422,-46.6385731,POINT (-46.6385731 -23.6152422),20,METROPOLITANA DE SÃO PAULO,35,74.42107436800245,754.0324158135543,1305.9757739327808
Avenida João Barreto de Menezes,Vila Santa Catarina,80,2,5,Casa,2200,2305,-23.6514281,-46.6621004,POINT (-46.6621004 -23.6514281),20,METROPOLITANA DE SÃO PAULO,35,253.16701697615807,376.1777252761136,1574.8394564497396
Rua Professor Aprígio Gonzaga,São Judas,65,2,1,Apartamento,3500,4529,-23.6247342,-46.6338891,POINT (-46.6338891 -23.6247342),20,METROPOLITANA DE SÃO PAULO,35,232.18782544717578,321.8049177930871,894.3246758655645
Rua Humberto I,Vila Mariana,21,1,0,Studio e kitnet,3400,4053,-23.5871207,-46.6407645,POINT (-46.6407645 -23.5871207),20,METROPOLITANA DE SÃO PAULO,35,120.65875809982276,271.63321503161137,247.13019356261972
Rua Andrade Reis,Mooca,34,1,0,Apartamento,2000,2577,-23.5559103,-46.6196431,POINT (-46.6196431 -23.5559103),20,METROPOLITANA DE SÃO PAULO,35,339.59796557685536,585.2453089745062,528.2645762514485
Rua Cunha Gago,Pinheiros,31,1,1,Apartamento,2300,3151,-23.5625079,-46.693739,POINT (-46.693739 -23.5625079),20,METROPOLITANA DE SÃO PAULO,35,148.6741201501489,712.9132657861767,148.96808956007257
Rua Ernani Pinto,Vila Maria Alta,65,3,1,Apartamento,1800,2494,-23.5031395,-46.5929078,POINT (-46.5929078 -23.5031395),20,METROPOLITANA DE SÃO PAULO,35,220.9971948631912,423.19830085024466,915.6068579508492
Rua Cônego Vicente Miguel Marino,Barra Funda,40,2,1,Apartamento,2800,3308,-23.5266013,-46.6540593,POINT (-46.6540593 -23.5266013),20,METROPOLITANA DE SÃO PAULO,35,205.5162752654065,303.2688101203377,466.22512286226333
Avenida Marechal Mario Guedes,Jaguaré,70,2,1,Apartamento,2700,3686,-23.549129,-46.7359309,POINT (-46.7359309 -23.549129),20,METROPOLITANA DE SÃO PAULO,35,528.214917210334,1130.8645504418062,1283.0559460777354
Avenida Cupecê,Jardim Prudência,28,1,0,Apartamento,1900,2254,-23.6710373,-46.6465404,POINT (-46.6465404 -23.6710373),20,METROPOLITANA DE SÃO PAULO,35,97.27631794902123,317.0527538652238,1124.9164765621922
Rua Álvaro Nunes,Vila Congonhas,61,2,2,Apartamento,3500,4947,-23.6214477,-46.6648977,POINT (-46.6648977 -23.6214477),20,METROPOLITANA DE SÃO PAULO,35,301.10518310452835,555.2276030414812,1252.100362434517
Avenida Dr. Vieira de Carvalho,República,25,1,0,Studio e kitnet,1148,1742,-23.5421176,-46.6435826,POINT (-46.6435826 -23.5421176),20,METROPOLITANA DE SÃO PAULO,35,101.45905642919361,241.37032691463335,173.93425790112443
Rua Gabriel dos Santos,Santa Cecília,38,1,1,Apartamento,2650,3652,-23.5353346,-46.6592958,POINT (-46.6592958 -23.5353346),20,METROPOLITANA DE SÃO PAULO,35,182.14966061993667,509.68611250764417,533.3656800108431
Rua Maracanã-guaçu,Jardim Sao Francisco (zona Leste),45,2,1,Apartamento,1250,1596,-23.4993354,-46.529143,POINT (-46.529143 -23.4993354),20,METROPOLITANA DE SÃO PAULO,35,174.42628745952396,242.4542608724999,177.0457365052503
Rua Tabatinguera,Sé,22,1,0,Studio e kitnet,1799,2182,-23.5521762,-46.6274643,POINT (-46.6274643 -23.5521762),20,METROPOLITANA DE SÃO PAULO,35,264.4893474060154,146.7659432447511,548.3891533637426
Rua Francisco Retti,Vila Oratorio,96,1,0,Casa,1700,1873,-23.5711959,-46.5743612,POINT (-46.5743612 -23.5711959),20,METROPOLITANA DE SÃO PAULO,35,216.55376286092954,139.0167070059282,1519.8471012902799
Rua Conselheiro Furtado,Liberdade,26,1,0,Studio e kitnet,2100,2566,-23.559334,-46.6328694,POINT (-46.6328694 -23.559334),20,METROPOLITANA DE SÃO PAULO,35,236.92353737692795,83.74338561158838,235.74257444210383
Rua Doutor Miguel Vieira Ferreira,Tatuapé,30,0,0,Apartamento,1840,2113,-23.5344297,-46.5618852,POINT (-46.5618852 -23.5344297),20,METROPOLITANA DE SÃO PAULO,35,102.68619551696361,470.23854722410096,296.6813911195022
Rua Coronel Fawcett,Vila Moraes,120,2,1,Casa,1400,1519,-23.6339573,-46.6174753,POINT (-46.6174753 -23.6339573),20,METROPOLITANA DE SÃO PAULO,35,72.64666022857944,518.8680068249857,754.5502886744874
Rua Aguiar de Barros,Bela Vista,16,1,0,Apartamento,1800,2139,-23.5538383,-46.6398149,POINT (-46.6398149 -23.5538383),20,METROPOLITANA DE SÃO PAULO,35,39.800970332866505,315.19068802532854,197.81179386833514
Rua Angaturama,Vila Moraes,35,1,0,Casa em condomínio,1250,1347,-23.623219,-46.6087781,POINT (-46.6087781 -23.623219),20,METROPOLITANA DE SÃO PAULO,35,142.32332306882208,808.196512317937,786.5458869265207
Rua Alves Ribeiro,Cambuci,60,2,0,Apartamento,1900,2028,-23.5651849,-46.6226576,POINT (-46.6226576 -23.5651849),20,METROPOLITANA DE SÃO PAULO,35,42.5036767791433,176.21909791588664,1095.5943724725826
Rua Amorim Castro,Vila São Luís(zona Oeste),15,1,0,Studio e kitnet,740,1196,-23.5722295,-46.7391151,POINT (-46.7391151 -23.5722295),20,METROPOLITANA DE SÃO PAULO,35,145.01284833471806,735.6445985423511,412.3762498884094
Rua Jardim das Margaridas,Vila Buenos Aires,75,2,1,Casa em condomínio,1577,1799,-23.5081912,-46.5130617,POINT (-46.5130617 -23.5081912),20,METROPOLITANA DE SÃO PAULO,35,65.62036370874065,767.5073398515923,1805.1640906788966
Rua Ibéria,Vila Isolina Mazzei,38,1,0,Apartamento,1250,1388,-23.4939719,-46.604675,POINT (-46.604675 -23.4939719),20,METROPOLITANA DE SÃO PAULO,35,212.30511953371789,381.08343183560174,789.7136745519693
Avenida São João,República,28,1,0,Studio e kitnet,1394,1493,-23.5397579,-46.6448726,POINT (-46.6448726 -23.5397579),20,METROPOLITANA DE SÃO PAULO,35,392.56731357321223,372.8679396180882,120.93353655257081
Rua Coronel Homero da Silveira,Parque Peruche,70,1,1,Casa,1500,1655,-23.498421,-46.645571,POINT (-46.645571 -23.498421),20,METROPOLITANA DE SÃO PAULO,35,95.53745614771294,914.6704756114348,886.6231362081625
Rua Cláudia,Vila Marieta,55,2,1,Apartamento,1700,2400,-23.517633,-46.526197,POINT (-46.526197 -23.517633),20,METROPOLITANA DE SÃO PAULO,35,137.3082832516926,547.7654457271062,1318.5788217316729
Rua Domingos Paiva,Brás,33,1,1,Apartamento,1700,2223,-23.5486945,-46.6144899,POINT (-46.6144899 -23.5486945),20,METROPOLITANA DE SÃO PAULO,35,137.01288424751877,1072.951397745931,641.2592645560193
Rua das Águias Reais,Vila Cardoso Franco,50,2,1,Apartamento,791,1212,-23.6227024,-46.5068404,POINT (-46.5068404 -23.6227024),20,METROPOLITANA DE SÃO PAULO,35,234.71841133692763,294.75855158792183,569.1215429470253
Rua Renéa Ferreira de Castilho,Super Quadra Morumbi,110,3,3,Casa,3500,3825,-23.6160981,-46.7508012,POINT (-46.7508012 -23.6160981),20,METROPOLITANA DE SÃO PAULO,35,171.05985084878282,528.403058485677,690.2755491699485
Rua Antônio Gomes Ferreira,Parque Fongaro,34,2,0,Studio e kitnet,1100,1360,-23.6339516,-46.5941399,POINT (-46.5941399 -23.6339516),20,METROPOLITANA DE SÃO PAULO,35,283.06713325433236,521.3807213720211,1408.956706534632
Rua Honório Pena,Vila Matilde,101,3,3,Casa,3060,3190,-23.5333342,-46.5262394,POINT (-46.5262394 -23.5333342),20,METROPOLITANA DE SÃO PAULO,35,86.28828166494249,108.42469312581349,739.0030497178243
Rua Natividade Saldanha,São Lucas,32,0,0,Studio e kitnet,1200,1532,-23.59294,-46.5565614,POINT (-46.5565614 -23.59294),20,METROPOLITANA DE SÃO PAULO,35,145.25673898360867,610.2135667727671,910.9723427000716
Rua Manuel Leiroz,Vila Penteado,38,1,0,Apartamento,1350,1702,-23.5137743,-46.5203076,POINT (-46.5203076 -23.5137743),20,METROPOLITANA DE SÃO PAULO,35,498.66834085027375,745.4284872860823,1813.9508386857315
Rua dos Carmelitas,Sé,38,1,0,Studio e kitnet,980,1377,-23.5519164,-46.6292206,POINT (-46.6292206 -23.5519164),20,METROPOLITANA DE SÃO PAULO,35,125.71960868950055,136.29375015363937,402.06314156002475
Rua Gradaú,Vila Bela,50,2,2,Apartamento,2500,3231,-23.5986112,-46.5746135,POINT (-46.5746135 -23.5986112),20,METROPOLITANA DE SÃO PAULO,35,270.3821220058701,755.6056314709814,1165.6089455282322
Rua Vitório Ramalho,Tatuapé,91,3,2,Apartamento,6000,7282,-23.5315713,-46.5624947,POINT (-46.5624947 -23.5315713),20,METROPOLITANA DE SÃO PAULO,35,47.3144260465325,433.70751445478936,257.78517191811636
Rua Aurélia,Vila Romana,80,2,0,Casa,2200,2335,-23.5238178,-46.6977423,POINT (-46.6977423 -23.5238178),20,METROPOLITANA DE SÃO PAULO,35,118.40060032906477,359.35233133917615,220.98295549227555
Rua Washington Luís,Centro Histórico de São Paulo,22,1,0,Studio e kitnet,1843,2164,-23.5378167,-46.6332681,POINT (-46.6332681 -23.5378167),20,METROPOLITANA DE SÃO PAULO,35,377.7453803137231,976.7531606439857,378.001575342051
Rua Conselheiro Furtado,Liberdade,30,1,0,Studio e kitnet,2198,2682,-23.559334,-46.6328694,POINT (-46.6328694 -23.559334),20,METROPOLITANA DE SÃO PAULO,35,236.92353737692795,83.74338561158838,235.74257444210383
Rua Tristão de Oliveira,Vila Gumercindo,60,2,0,Casa,1555,1726,-23.6083221,-46.6187594,POINT (-46.6187594 -23.6083221),20,METROPOLITANA DE SÃO PAULO,35,145.86781581653767,555.417213719825,521.1103034944572
Rua François Coty,Cambuci,34,2,1,Apartamento,1680,2170,-23.565091,-46.61328,POINT (-46.61328 -23.565091),20,METROPOLITANA DE SÃO PAULO,35,316.4828305144555,629.5976262225922,1620.45554230188
Rua Isaura Abad Giacomelli,Jardim Aurelia,32,1,0,Studio e kitnet,1700,2067,-23.6001052,-46.6216907,POINT (-46.6216907 -23.6001052),20,METROPOLITANA DE SÃO PAULO,35,188.67909778180143,346.60091897167945,1242.811042934705
Avenida Alberto Augusto Alves,Vila Andrade,38,1,1,Apartamento,2800,2940,-23.6431738,-46.7350755,POINT (-46.7350755 -23.6431738),20,METROPOLITANA DE SÃO PAULO,35,228.65019440094832,628.2941357641886,865.509242277691
Rua Barão de Iguape,Liberdade,38,1,0,Studio e kitnet,1100,1492,-23.5582387,-46.6371062,POINT (-46.6371062 -23.5582387),20,METROPOLITANA DE SÃO PAULO,35,116.00610636730427,233.38120680819236,363.35208799275597
Rua Josef Kryss,Parque Industrial Tomas Edson,29,1,0,Apartamento,1760,2206,-23.5188453,-46.6751025,POINT (-46.6751025 -23.5188453),20,METROPOLITANA DE SÃO PAULO,35,902.773288063824,1204.203877828631,868.32435812956
Avenida Dedo de Deus,Vila Formosa,34,1,0,Studio e kitnet,1500,1807,-23.5640322,-46.5384899,POINT (-46.5384899 -23.5640322),20,METROPOLITANA DE SÃO PAULO,35,45.36536239719429,749.2730137880275,872.8207838733649
Rua Akron,Jardim Aricanduva,60,1,0,Casa,1350,1407,-23.5690281,-46.5058161,POINT (-46.5058161 -23.5690281),20,METROPOLITANA DE SÃO PAULO,35,298.71676313389264,419.43443266339773,426.9896745691614
Rua Itaqueri,Alto da Mooca,40,1,0,Casa,1200,1331,-23.5566137,-46.5885839,POINT (-46.5885839 -23.5566137),20,METROPOLITANA DE SÃO PAULO,35,170.1591764093721,642.7769266980872,1124.7314027259185
Rua dos Trilhos,Mooca,90,2,0,Apartamento,2450,2482,-23.5531566,-46.600068,POINT (-46.600068 -23.5531566),20,METROPOLITANA DE SÃO PAULO,35,82.86815345563272,155.11710988643657,429.7793948976767
Rua Engenheiro Bianor,Butantã,29,1,1,Studio e kitnet,2790,3392,-23.5713457,-46.7078925,POINT (-46.7078925 -23.5713457),20,METROPOLITANA DE SÃO PAULO,35,56.73917084063193,327.54845913049985,971.1689775529187
Rua Nestor Pestana,Consolação,42,1,0,Studio e kitnet,1706,2067,-23.5488331,-46.6454508,POINT (-46.6454508 -23.5488331),20,METROPOLITANA DE SÃO PAULO,35,136.20000092978526,107.18648506083642,71.54470572579962
Rua Lindório,Vila Domitila,70,2,1,Casa,1930,2041,-23.5139658,-46.5092938,POINT (-46.5092938 -23.5139658),20,METROPOLITANA DE SÃO PAULO,35,31.13523982074281,414.692595515594,2150.2593186590834
Rua Olívia Guedes Penteado,Socorro,35,2,0,Apartamento,1500,2015,-23.6795013,-46.7065003,POINT (-46.7065003 -23.6795013),20,METROPOLITANA DE SÃO PAULO,35,133.2454632237887,650.2686383065255,727.452392488494
Rua Jaboatão,Casa Verde,82,3,2,Apartamento,2100,3257,-23.5074285,-46.6567141,POINT (-46.6567141 -23.5074285),20,METROPOLITANA DE SÃO PAULO,35,271.49440302242175,462.6740398417923,932.0424468799151
Travessa Carlos Ramirez,Vila Água Funda,54,1,1,Casa,1500,1563,-23.6343105,-46.6261046,POINT (-46.6261046 -23.6343105),20,METROPOLITANA DE SÃO PAULO,35,305.0123283015812,439.45675573707405,567.8062342761367
Rua Tapiraí,Vila Isolina Mazzei,67,2,1,Apartamento,2884,3695,-23.4974951,-46.5969156,POINT (-46.5969156 -23.4974951),20,METROPOLITANA DE SÃO PAULO,35,22.087192732033294,381.0603441733418,1195.9107203648011
Rua Brasil,Rudge Ramos,73,2,2,Apartamento,2100,2687,-23.6630071,-46.5625487,POINT (-46.5625487 -23.6630071),20,METROPOLITANA DE SÃO PAULO,35,3450.9303315010006,3706.452323131138,5135.771403849366
Rua Panhames,Vila Beatriz,90,3,1,Casa,1900,2081,-23.5293572,-46.5325842,POINT (-46.5325842 -23.5293572),20,METROPOLITANA DE SÃO PAULO,35,207.39723198709237,544.7710548269696,157.2723966527054
Rua Feliciano Bicudo,Vila Paulicéia,90,2,0,Casa,2450,2808,-23.4880398,-46.6151296,POINT (-46.6151296 -23.4880398),20,METROPOLITANA DE SÃO PAULO,35,220.2362879118144,643.3357599218526,1245.9406447205317
Rua Leandro de Carvalho,Vila Monumento,95,2,2,Apartamento,2570,2843,-23.5694843,-46.6125011,POINT (-46.6125011 -23.5694843),20,METROPOLITANA DE SÃO PAULO,35,151.7122518386089,157.87734032258166,1127.712906817106
Rua José Maria Ressuto,Imirim,130,3,1,Casa,2500,2606,-23.4756857,-46.6526873,POINT (-46.6526873 -23.4756857),20,METROPOLITANA DE SÃO PAULO,35,199.90496998231202,663.3613830115019,241.0273867867251
Rua Capitão Rubens,Parque Edu Chaves,30,1,0,Studio e kitnet,950,1057,-23.475801,-46.5622365,POINT (-46.5622365 -23.475801),20,METROPOLITANA DE SÃO PAULO,35,90.0789144835183,709.2806970279474,2967.7747841451733
Rua do Lucas,Brás,50,2,1,Apartamento,3000,3578,-23.5429489,-46.6250392,POINT (-46.6250392 -23.5429489),20,METROPOLITANA DE SÃO PAULO,35,87.73715939516761,953.7501351280916,601.892333019013
Avenida São João,Santa Cecília,24,1,0,Studio e kitnet,1240,1560,-23.5352463,-46.6531381,POINT (-46.6531381 -23.5352463),20,METROPOLITANA DE SÃO PAULO,35,315.1019570994078,139.50327656821602,883.5906870558437
Rua Hilário Capote Valente,São Lucas,60,2,0,Casa,1400,1460,-23.5986681,-46.5501598,POINT (-46.5501598 -23.5986681),20,METROPOLITANA DE SÃO PAULO,35,131.40309076111978,482.069738682224,484.0838930790144
Rua Glicério,Liberdade,49,2,1,Apartamento,2400,2997,-23.5598117,-46.6311518,POINT (-46.6311518 -23.5598117),20,METROPOLITANA DE SÃO PAULO,35,258.66548602270194,119.58396286703433,372.6460013232146
Rua José de Figueiredo Seixas,Sítio do Mandaqui,50,2,1,Apartamento,1300,1992,-23.4800414,-46.6583522,POINT (-46.6583522 -23.4800414),20,METROPOLITANA DE SÃO PAULO,35,177.08137119384202,384.10261998112935,977.8200368580603
Rua Duarte de Carvalho,Tatuapé,81,2,1,Apartamento,4000,5088,-23.5346777,-46.5719344,POINT (-46.5719344 -23.5346777),20,METROPOLITANA DE SÃO PAULO,35,130.8400125016798,320.64047464566255,167.20265165861628
Rua Miguel Garcia,Cangaiba,70,1,0,Casa,969,1061,-23.5000175,-46.5304375,POINT (-46.5304375 -23.5000175),20,METROPOLITANA DE SÃO PAULO,35,217.27803412314609,274.51772979761165,328.01271351298664
Rua Oscar Cintra Gordinho,Liberdade,35,1,0,Apartamento,1281,1331,-23.552991,-46.6275366,POINT (-46.6275366 -23.552991),20,METROPOLITANA DE SÃO PAULO,35,189.05903747982418,225.71871375003937,515.4454441437347
Rua Celeste Fernandes Dalphorno,Jardim Rosana,40,1,0,Casa,800,949,-23.4373641,-46.5624303,POINT (-46.5624303 -23.4373641),20,METROPOLITANA DE SÃO PAULO,35,580.4097908936858,1156.0729498748365,2137.223598751471
Rua Quedas 315,Vila Isolina Mazzei,60,2,1,Casa em condomínio,2600,2785,-23.494367702269084,-46.60791381360359,POINT (-46.60791381360359 -23.494367702269084),20,METROPOLITANA DE SÃO PAULO,35,337.29535956317164,714.4948837804806,613.045285401686
Rua Peixoto Gomide,Jardim Paulista,55,1,0,Apartamento,1650,2113,-23.5608957,-46.6570937,POINT (-46.6570937 -23.5608957),20,METROPOLITANA DE SÃO PAULO,35,353.0175160337507,211.062827664192,134.21181415518848
Rua Frei Caneca,Bela Vista,30,1,0,Studio e kitnet,1735,2396,-23.5518916,-46.649261,POINT (-46.649261 -23.5518916),20,METROPOLITANA DE SÃO PAULO,35,96.6155116408911,583.7920283509395,346.907064984052
Rua Iapó,Casa Verde,55,2,0,Casa,2000,2085,-23.51445,-46.6644086,POINT (-46.6644086 -23.51445),20,METROPOLITANA DE SÃO PAULO,35,308.60294448516396,579.5876156011628,910.6160250767053
Rua Piracanguá,Jardim Sao Paulo(zona Norte),80,2,1,Casa,2000,2085,-23.4890825,-46.6232436,POINT (-46.6232436 -23.4890825),20,METROPOLITANA DE SÃO PAULO,35,131.7908708192779,83.78619982629445,955.1008292739393
Rua Bueno de Andrade,Aclimação,68,3,1,Apartamento,2199,3066,-23.5634338,-46.6315739,POINT (-46.6315739 -23.5634338),20,METROPOLITANA DE SÃO PAULO,35,171.04026670229763,257.6813807664446,443.1922334339666
